{"1995":{"1":{"data":[{"id":"1995Q1","lat":"-8.54966","lng":"125.566599","city":"Dili","group":"Ninjas","nkill":"0","attack_type":"Unknown","target":"NGO"},{"id":"1995Q1","lat":"-8.54966","lng":"125.566599","city":"Dili","group":"Ninjas","nkill":"0","attack_type":"Hostage Taking (Kidnapping)","target":"Private Citizens & Property"}]},"2":{"data":[{"id":"1995Q2","lat":"-8.8575","lng":"126.364722","city":"Olabai V., Viqweque, E. Timor","group":"Revolutionary Front for an Independent East Timor (FRETILIN)","nkill":"1","attack_type":"Armed Assault","target":"Military"},{"id":"1995Q2","lat":"3.59565999999999","lng":"98.482418","city":"Binjai","group":"Huria Kristen Batak Protestan (HKBP)","nkill":"1","attack_type":"Armed Assault","target":"Religious Figures\/Institutions"}]},"3":{"data":[{"id":"1995Q3","lat":"-6.20882099999999","lng":"106.846046","city":"Jakarta","group":"Huria Kristen Batak Protestan (HKBP)","nkill":"0","attack_type":"Armed Assault","target":"Religious Figures\/Institutions"},{"id":"1995Q3","lat":"-8.46643","lng":"126.449704","city":"Bauacau","group":"East Timorese extremists","nkill":"0","attack_type":"Facility\/Infrastructure Attack","target":"Private Citizens & Property"},{"id":"1995Q3","lat":"-8.54966","lng":"125.566599","city":"Dili","group":"Unknown","nkill":"0","attack_type":"Assassination","target":"Police"},{"id":"1995Q3","lat":"-8.478384","lng":"126.585651","city":"Samagia","group":"Revolutionary Front for an Independent East Timor (FRETILIN)","nkill":"2","attack_type":"Armed Assault","target":"Business"},{"id":"1995Q3","lat":"-8.855222","lng":"126.364246","city":"Viqueque","group":"E. Timorese Youths","nkill":"0","attack_type":"Unknown","target":"Private Citizens & Property"},{"id":"1995Q3","lat":"-8.54966","lng":"125.566599","city":"Dili","group":"E. Timorese Youths","nkill":"0","attack_type":"Facility\/Infrastructure Attack","target":"Private Citizens & Property"},{"id":"1995Q3","lat":"-8.54966","lng":"125.566599","city":"Dili","group":"E. Timorese Youths","nkill":"3","attack_type":"Facility\/Infrastructure Attack","target":"Private Citizens & Property"},{"id":"1995Q3","lat":"4.707828","lng":"96.732788","city":"Unknown","group":"Free Aceh Movement (GAM)","nkill":"2","attack_type":"Assassination","target":"Business"},{"id":"1995Q3","lat":"-8.54966","lng":"125.566599","city":"Dili","group":"E. Timorese Youths","nkill":"0","attack_type":"Unknown","target":"Government (General)"},{"id":"1995Q3","lat":"-8.54966","lng":"125.566599","city":"Dili","group":"E. Timorese Youths","nkill":"0","attack_type":"Unknown","target":"Private Citizens & Property"}]},"4":{"data":[{"id":"1995Q4","lat":"-8.54966","lng":"125.566599","city":"Dili","group":"East Timorese extremists","nkill":"0","attack_type":"Hostage Taking (Barricade Incident)","target":"Transportation"},{"id":"1995Q4","lat":"-8.54966","lng":"125.566599","city":"Dili","group":"Pro-Indonesia extremists","nkill":"1","attack_type":"Assassination","target":"Government (General)"},{"id":"1995Q4","lat":"-8.54966","lng":"125.566599","city":"Dili","group":"East Timorese extremists","nkill":"1","attack_type":"Assassination","target":"Private Citizens & Property"},{"id":"1995Q4","lat":"-8.54966","lng":"125.566599","city":"Dili","group":"East Timorese extremists","nkill":"0","attack_type":"Assassination","target":"Private Citizens & Property"},{"id":"1995Q4","lat":"-8.54966","lng":"125.566599","city":"Dili","group":"East Timorese extremists","nkill":"0","attack_type":"Hostage Taking (Kidnapping)","target":"Police"},{"id":"1995Q4","lat":"-0.95","lng":"100.353056","city":"Padang","group":"Huria Kristen Batak Protestan (HKBP)","nkill":"0","attack_type":"Unknown","target":"Religious Figures\/Institutions"},{"id":"1995Q4","lat":"-0.95","lng":"100.353056","city":"Padang","group":"Huria Kristen Batak Protestan (HKBP)","nkill":"0","attack_type":"Facility\/Infrastructure Attack","target":"Religious Figures\/Institutions"},{"id":"1995Q4","lat":"-2.528781","lng":"140.713463","city":"Jayapura","group":"Free Papua Movement (OPM-Organisasi Papua Merdeka)","nkill":"0","attack_type":"Hostage Taking (Kidnapping)","target":"Private Citizens & Property"},{"id":"1995Q4","lat":"-8.709089","lng":"126.828327","city":"Iliomar, E. Timor","group":"Armed Forces for Liberation of East Timor (FALINTIL)","nkill":"30","attack_type":"Unknown","target":"Military"},{"id":"1995Q4","lat":"-6.20882099999999","lng":"106.846046","city":"Jakarta","group":"East Timorese extremists","nkill":"0","attack_type":"Unknown","target":"Government (Diplomatic)"}]}},"1996":{"1":{"data":[{"id":"1996Q1","lat":"-0.861453","lng":"134.062042","city":"Mapunduma V., Irian Jaya","group":"Free Papua Movement (OPM-Organisasi Papua Merdeka)","nkill":"2","attack_type":"Hostage Taking (Kidnapping)","target":"Private Citizens & Property"},{"id":"1996Q1","lat":"-8.867896","lng":"125.704607","city":"Leoruka","group":"National Council of Maubere Resistance","nkill":"9","attack_type":"Armed Assault","target":"Military"},{"id":"1996Q1","lat":"-8.92707","lng":"125.225323","city":"Asalau","group":"Revolutionary Front for an Independent East Timor (FRETILIN)","nkill":"2","attack_type":"Armed Assault","target":"Private Citizens & Property"},{"id":"1996Q1","lat":"-4.266966","lng":"137.0472","city":"Tembagadura","group":"Irianese Tribesmen","nkill":"0","attack_type":"Unknown","target":"Business"},{"id":"1996Q1","lat":"-4.55013","lng":"136.889096","city":"Timika","group":"Irianese Tribesmen","nkill":"0","attack_type":"Armed Assault","target":"Business"}]},"2":{"data":[{"id":"1996Q2","lat":"3.585242","lng":"98.675598","city":"Medan","group":"Unknown","nkill":"0","attack_type":"Armed Assault","target":"Private Citizens & Property"},{"id":"1996Q2","lat":"3.585242","lng":"98.675598","city":"Medan","group":"Mob","nkill":"0","attack_type":"Facility\/Infrastructure Attack","target":"Government (General)"}]},"3":{"data":[{"id":"1996Q3","lat":"-6.20882099999999","lng":"106.846046","city":"Jakarta","group":"Opposition Group","nkill":"5","attack_type":"Armed Assault","target":"Government (General)"},{"id":"1996Q3","lat":"-6.20882099999999","lng":"106.846046","city":"Jakarta","group":"Opposition Group","nkill":"0","attack_type":"Facility\/Infrastructure Attack","target":"Government (General)"},{"id":"1996Q3","lat":"-6.20882099999999","lng":"106.846046","city":"Jakarta","group":"Opposition Group","nkill":"0","attack_type":"Facility\/Infrastructure Attack","target":"Government (General)"},{"id":"1996Q3","lat":"-6.20882099999999","lng":"106.846046","city":"Jakarta","group":"Opposition Group","nkill":"0","attack_type":"Facility\/Infrastructure Attack","target":"Government (General)"},{"id":"1996Q3","lat":"-6.20882099999999","lng":"106.846046","city":"Jakarta","group":"Opposition Group","nkill":"0","attack_type":"Facility\/Infrastructure Attack","target":"Government (General)"},{"id":"1996Q3","lat":"-6.20882099999999","lng":"106.846046","city":"Jakarta","group":"Opposition Group","nkill":"0","attack_type":"Facility\/Infrastructure Attack","target":"Government (General)"},{"id":"1996Q3","lat":"-6.20882099999999","lng":"106.846046","city":"Jakarta","group":"Opposition Group","nkill":"0","attack_type":"Facility\/Infrastructure Attack","target":"Government (General)"},{"id":"1996Q3","lat":"-6.20882099999999","lng":"106.846046","city":"Jakarta","group":"Opposition Group","nkill":"0","attack_type":"Facility\/Infrastructure Attack","target":"Government (General)"},{"id":"1996Q3","lat":"-6.20882099999999","lng":"106.846046","city":"Jakarta","group":"Opposition Group","nkill":"0","attack_type":"Facility\/Infrastructure Attack","target":"Government (General)"},{"id":"1996Q3","lat":"-6.20882099999999","lng":"106.846046","city":"Jakarta","group":"Opposition Group","nkill":"0","attack_type":"Facility\/Infrastructure Attack","target":"Government (General)"},{"id":"1996Q3","lat":"-7.797224","lng":"110.368797","city":"Yogyakarta","group":"Unknown","nkill":"1","attack_type":"Unarmed Assault","target":"Journalists & Media"},{"id":"1996Q3","lat":"-4.55013","lng":"136.889096","city":"Timika","group":"Free Papua Movement (OPM-Organisasi Papua Merdeka)","nkill":"0","attack_type":"Hostage Taking (Kidnapping)","target":"Business"},{"id":"1996Q3","lat":"-7.289166","lng":"112.734398","city":"Surabaya","group":"Unknown","nkill":"0","attack_type":"Armed Assault","target":"Government (Diplomatic)"},{"id":"1996Q3","lat":"-6.277","lng":"106.9469","city":"Bekasi","group":"Youths","nkill":"0","attack_type":"Facility\/Infrastructure Attack","target":"Religious Figures\/Institutions"}]},"4":{"data":[{"id":"1996Q4","lat":"-7.70505299999999","lng":"113.995279","city":"Situbondo","group":"Muslim Militants","nkill":"1","attack_type":"Facility\/Infrastructure Attack","target":"Religious Figures\/Institutions"},{"id":"1996Q4","lat":"-7.70505299999999","lng":"113.995279","city":"Situbondo","group":"Muslim Militants","nkill":"1","attack_type":"Facility\/Infrastructure Attack","target":"Religious Figures\/Institutions"},{"id":"1996Q4","lat":"-7.70505299999999","lng":"113.995279","city":"Situbondo","group":"Muslim Militants","nkill":"1","attack_type":"Facility\/Infrastructure Attack","target":"Religious Figures\/Institutions"},{"id":"1996Q4","lat":"-7.70505299999999","lng":"113.995279","city":"Situbondo","group":"Muslim Militants","nkill":"1","attack_type":"Facility\/Infrastructure Attack","target":"Religious Figures\/Institutions"},{"id":"1996Q4","lat":"-7.70505299999999","lng":"113.995279","city":"Situbondo","group":"Muslim Militants","nkill":"1","attack_type":"Facility\/Infrastructure Attack","target":"Religious Figures\/Institutions"},{"id":"1996Q4","lat":"-7.70505299999999","lng":"113.995279","city":"Situbondo","group":"Muslim Militants","nkill":"0","attack_type":"Facility\/Infrastructure Attack","target":"Religious Figures\/Institutions"},{"id":"1996Q4","lat":"-7.70505299999999","lng":"113.995279","city":"Situbondo","group":"Muslim Militants","nkill":"0","attack_type":"Facility\/Infrastructure Attack","target":"Religious Figures\/Institutions"},{"id":"1996Q4","lat":"-7.70505299999999","lng":"113.995279","city":"Situbondo","group":"Muslim Militants","nkill":"0","attack_type":"Facility\/Infrastructure Attack","target":"Religious Figures\/Institutions"},{"id":"1996Q4","lat":"-7.70505299999999","lng":"113.995279","city":"Situbondo","group":"Muslim Militants","nkill":"0","attack_type":"Facility\/Infrastructure Attack","target":"Religious Figures\/Institutions"},{"id":"1996Q4","lat":"-7.70505299999999","lng":"113.995279","city":"Situbondo","group":"Muslim Militants","nkill":"0","attack_type":"Facility\/Infrastructure Attack","target":"Religious Figures\/Institutions"},{"id":"1996Q4","lat":"-7.70505299999999","lng":"113.995279","city":"Situbondo","group":"Muslim Militants","nkill":"0","attack_type":"Facility\/Infrastructure Attack","target":"Religious Figures\/Institutions"},{"id":"1996Q4","lat":"-7.70505299999999","lng":"113.995279","city":"Situbondo","group":"Muslim Militants","nkill":"0","attack_type":"Facility\/Infrastructure Attack","target":"Religious Figures\/Institutions"},{"id":"1996Q4","lat":"-7.70505299999999","lng":"113.995279","city":"Situbondo","group":"Muslim Militants","nkill":"0","attack_type":"Facility\/Infrastructure Attack","target":"Religious Figures\/Institutions"},{"id":"1996Q4","lat":"-7.70505299999999","lng":"113.995279","city":"Situbondo","group":"Muslim Militants","nkill":"0","attack_type":"Facility\/Infrastructure Attack","target":"Religious Figures\/Institutions"},{"id":"1996Q4","lat":"-7.70505299999999","lng":"113.995279","city":"Situbondo","group":"Muslim Militants","nkill":"0","attack_type":"Facility\/Infrastructure Attack","target":"Religious Figures\/Institutions"},{"id":"1996Q4","lat":"-7.70505299999999","lng":"113.995279","city":"Situbondo","group":"Muslim Militants","nkill":"0","attack_type":"Facility\/Infrastructure Attack","target":"Religious Figures\/Institutions"},{"id":"1996Q4","lat":"-7.70505299999999","lng":"113.995279","city":"Situbondo","group":"Muslim Militants","nkill":"0","attack_type":"Facility\/Infrastructure Attack","target":"Religious Figures\/Institutions"},{"id":"1996Q4","lat":"-7.70505299999999","lng":"113.995279","city":"Situbondo","group":"Muslim Militants","nkill":"0","attack_type":"Facility\/Infrastructure Attack","target":"Religious Figures\/Institutions"},{"id":"1996Q4","lat":"-7.70505299999999","lng":"113.995279","city":"Situbondo","group":"Muslim Militants","nkill":"0","attack_type":"Facility\/Infrastructure Attack","target":"Religious Figures\/Institutions"},{"id":"1996Q4","lat":"-7.70505299999999","lng":"113.995279","city":"Situbondo","group":"Muslim Militants","nkill":"0","attack_type":"Facility\/Infrastructure Attack","target":"Religious Figures\/Institutions"},{"id":"1996Q4","lat":"-7.70505299999999","lng":"113.995279","city":"Situbondo","group":"Muslim Militants","nkill":"0","attack_type":"Facility\/Infrastructure Attack","target":"Religious Figures\/Institutions"},{"id":"1996Q4","lat":"-7.70505299999999","lng":"113.995279","city":"Situbondo","group":"Muslim Militants","nkill":"0","attack_type":"Facility\/Infrastructure Attack","target":"Religious Figures\/Institutions"},{"id":"1996Q4","lat":"-7.70505299999999","lng":"113.995279","city":"Situbondo","group":"Muslim Militants","nkill":"0","attack_type":"Facility\/Infrastructure Attack","target":"Religious Figures\/Institutions"},{"id":"1996Q4","lat":"-7.70505299999999","lng":"113.995279","city":"Situbondo","group":"Muslim Militants","nkill":"0","attack_type":"Facility\/Infrastructure Attack","target":"Religious Figures\/Institutions"},{"id":"1996Q4","lat":"-7.70505299999999","lng":"113.995279","city":"Situbondo","group":"Muslim Militants","nkill":"0","attack_type":"Facility\/Infrastructure Attack","target":"Religious Figures\/Institutions"},{"id":"1996Q4","lat":"-7.70505299999999","lng":"113.995279","city":"Situbondo","group":"Muslim Militants","nkill":"0","attack_type":"Armed Assault","target":"Private Citizens & Property"},{"id":"1996Q4","lat":"-7.70505299999999","lng":"113.995279","city":"Situbondo","group":"Muslim Militants","nkill":"0","attack_type":"Armed Assault","target":"Private Citizens & Property"},{"id":"1996Q4","lat":"-7.70505299999999","lng":"113.995279","city":"Situbondo","group":"Muslim Militants","nkill":"0","attack_type":"Armed Assault","target":"Private Citizens & Property"},{"id":"1996Q4","lat":"-7.70505299999999","lng":"113.995279","city":"Situbondo","group":"Muslim Militants","nkill":"0","attack_type":"Armed Assault","target":"Private Citizens & Property"},{"id":"1996Q4","lat":"-7.70505299999999","lng":"113.995279","city":"Situbondo","group":"Muslim Militants","nkill":"0","attack_type":"Armed Assault","target":"Private Citizens & Property"},{"id":"1996Q4","lat":"-7.70505299999999","lng":"113.995279","city":"Situbondo","group":"Muslim Militants","nkill":"0","attack_type":"Armed Assault","target":"Private Citizens & Property"},{"id":"1996Q4","lat":"-7.70505299999999","lng":"113.995279","city":"Situbondo","group":"Muslim Militants","nkill":"0","attack_type":"Armed Assault","target":"Private Citizens & Property"},{"id":"1996Q4","lat":"-7.70505299999999","lng":"113.995279","city":"Situbondo","group":"Muslim Militants","nkill":"0","attack_type":"Armed Assault","target":"Private Citizens & Property"},{"id":"1996Q4","lat":"-7.70505299999999","lng":"113.995279","city":"Situbondo","group":"Muslim Militants","nkill":"0","attack_type":"Facility\/Infrastructure Attack","target":"Government (General)"},{"id":"1996Q4","lat":"-7.70505299999999","lng":"113.995279","city":"Situbondo","group":"Muslim Militants","nkill":"0","attack_type":"Facility\/Infrastructure Attack","target":"Business"},{"id":"1996Q4","lat":"-7.70505299999999","lng":"113.995279","city":"Situbondo","group":"Muslim Militants","nkill":"0","attack_type":"Facility\/Infrastructure Attack","target":"Business"},{"id":"1996Q4","lat":"-8.46643","lng":"126.449704","city":"Baucau","group":"Revolutionary Front for an Independent East Timor (FRETILIN)","nkill":"1","attack_type":"Assassination","target":"Police"},{"id":"1996Q4","lat":"-8.54966","lng":"125.566599","city":"Dili","group":"Timorese Students","nkill":"0","attack_type":"Armed Assault","target":"Private Citizens & Property"},{"id":"1996Q4","lat":"-8.54966","lng":"125.566599","city":"Dili","group":"Timorese Students","nkill":"0","attack_type":"Facility\/Infrastructure Attack","target":"Government (General)"},{"id":"1996Q4","lat":"-8.54966","lng":"125.566599","city":"Dili","group":"E. Timorese Youths","nkill":"0","attack_type":"Unknown","target":"Journalists & Media"},{"id":"1996Q4","lat":"-8.54966","lng":"125.566599","city":"Dili","group":"East Timorese extremists","nkill":"1","attack_type":"Assassination","target":"Private Citizens & Property"},{"id":"1996Q4","lat":"-8.54966","lng":"125.566599","city":"Dili","group":"East Timorese extremists","nkill":"0","attack_type":"Unknown","target":"Private Citizens & Property"},{"id":"1996Q4","lat":"-7.32795399999999","lng":"108.214104","city":"Tasikmalaya","group":"Muslim Militants","nkill":"4","attack_type":"Armed Assault","target":"Private Citizens & Property"}]}},"1997":{"1":{"data":[{"id":"1997Q1","lat":"-6.159167","lng":"107.298056","city":"Rengasdengklok","group":"Muslim Youth","nkill":"0","attack_type":"Facility\/Infrastructure Attack","target":"Religious Figures\/Institutions"},{"id":"1997Q1","lat":"-9.296778","lng":"124.282587999999","city":"Ambeno","group":"Catholic E. Timurese","nkill":"1","attack_type":"Armed Assault","target":"Private Citizens & Property"},{"id":"1997Q1","lat":"-8.54966","lng":"125.566599","city":"Dili","group":"East Timorese extremists","nkill":"0","attack_type":"Unknown","target":"Business"}]},"2":{"data":[{"id":"1997Q2","lat":"-6.88288699999999","lng":"109.669997999999","city":"Pekalongan","group":"Muslims","nkill":"0","attack_type":"Facility\/Infrastructure Attack","target":"Business"},{"id":"1997Q2","lat":"-8.855222","lng":"126.364246","city":"Viqueque","group":"Timorese guerrillas","nkill":"6","attack_type":"Unknown","target":"Police"},{"id":"1997Q2","lat":"-8.855222","lng":"126.364246","city":"Viqueque","group":"Timorese guerrillas","nkill":"6","attack_type":"Unknown","target":"Police"},{"id":"1997Q2","lat":"-7.42906199999999","lng":"109.776067","city":"Sigaluh","group":"Unknown","nkill":"0","attack_type":"Unknown","target":"Business"},{"id":"1997Q2","lat":"-7.672885","lng":"109.270991999999","city":"Binangun","group":"Unknown","nkill":"0","attack_type":"Unknown","target":"Government (General)"},{"id":"1997Q2","lat":"-7.36210899999999","lng":"109.899399","city":"Wonosobo","group":"Youths","nkill":"0","attack_type":"Facility\/Infrastructure Attack","target":"Government (General)"},{"id":"1997Q2","lat":"-4.28068","lng":"138.050537","city":"Akiba","group":"Free Papua Movement (OPM-Organisasi Papua Merdeka)","nkill":"2","attack_type":"Armed Assault","target":"Business"},{"id":"1997Q2","lat":"-8.46643","lng":"126.449704","city":"Baucau","group":"Unknown","nkill":"2","attack_type":"Unknown","target":"Police"},{"id":"1997Q2","lat":"-8.46643","lng":"126.449704","city":"Baucau","group":"Unknown","nkill":"10","attack_type":"Facility\/Infrastructure Attack","target":"Government (General)"},{"id":"1997Q2","lat":"-8.46643","lng":"126.449704","city":"Baucau","group":"Unknown","nkill":"10","attack_type":"Facility\/Infrastructure Attack","target":"Government (General)"},{"id":"1997Q2","lat":"-8.46643","lng":"126.449704","city":"Baucau","group":"Unknown","nkill":"10","attack_type":"Facility\/Infrastructure Attack","target":"Government (General)"},{"id":"1997Q2","lat":"-8.46643","lng":"126.449704","city":"Baucau","group":"Unknown","nkill":"10","attack_type":"Facility\/Infrastructure Attack","target":"Government (General)"},{"id":"1997Q2","lat":"-8.54966","lng":"125.566599","city":"Dili","group":"Unknown","nkill":"4","attack_type":"Armed Assault","target":"Police"},{"id":"1997Q2","lat":"-6.312279","lng":"106.784433","city":"Jakarta","group":"East Timorese extremists","nkill":"17","attack_type":"Bombing\/Explosion","target":"Police"},{"id":"1997Q2","lat":"-8.54966","lng":"125.566599","city":"Dili","group":"Unknown","nkill":"0","attack_type":"Facility\/Infrastructure Attack","target":"Private Citizens & Property"}]},"3":{"data":[{"id":"1997Q3","lat":"-8.583333","lng":"125.35","city":"Liquisa","group":"Revolutionary Front for an Independent East Timor (FRETILIN)","nkill":"3","attack_type":"Unknown","target":"Military"},{"id":"1997Q3","lat":"-7.216667","lng":"107.9","city":"Garut","group":"Unknown","nkill":"0","attack_type":"Armed Assault","target":"Police"},{"id":"1997Q3","lat":"-5.134485","lng":"119.41877","city":"Ujungpandang","group":"Unknown","nkill":"0","attack_type":"Armed Assault","target":"Business"},{"id":"1997Q3","lat":"-8.516667","lng":"126.016667","city":"Manatuto","group":"Revolutionary Front for an Independent East Timor (FRETILIN)","nkill":"11","attack_type":"Unknown","target":"Military"},{"id":"1997Q3","lat":"-8.913945","lng":"126.280736","city":"Buicaren V.","group":"Revolutionary Front for an Independent East Timor (FRETILIN)","nkill":"3","attack_type":"Armed Assault","target":"Private Citizens & Property"}]}},"1998":{"1":{"data":[{"id":"1998Q1","lat":"-8.522814","lng":"126.997171","city":"Los Palos","group":"Ninjas","nkill":"3","attack_type":"Unarmed Assault","target":"Transportation"}]},"4":{"data":[{"id":"1998Q4","lat":"-9.01700099999999","lng":"125.829397","city":"Unknown","group":"Unknown","nkill":"3","attack_type":"Armed Assault","target":"Police"},{"id":"1998Q4","lat":"-7.16666699999999","lng":"113.466666999999","city":"Madura","group":"Unknown","nkill":"3","attack_type":"Bombing\/Explosion","target":"Government (General)"}]}},"1999":{"2":{"data":[{"id":"1999Q2","lat":"-7.390747","lng":"109.3638","city":"Purbalingga","group":"Pemuda Pancasila","nkill":"0","attack_type":"Unknown","target":"Government (General)"},{"id":"1999Q2","lat":"-6.20882099999999","lng":"106.846046","city":"Jakarta","group":"Unknown","nkill":"0","attack_type":"Bombing\/Explosion","target":"Religious Figures\/Institutions"},{"id":"1999Q2","lat":"-3.903211","lng":"134.432709","city":"Mur II","group":"Unknown","nkill":"4","attack_type":"Hostage Taking (Kidnapping)","target":"Private Citizens & Property"},{"id":"1999Q2","lat":"-8.55902","lng":"125.578194","city":"Dili","group":"Aitarak Militia","nkill":"1","attack_type":"Armed Assault","target":"Private Citizens & Property"},{"id":"1999Q2","lat":"-8.556944","lng":"125.581667","city":"Santa Cruz","group":"Besi Merah Putih Militia","nkill":"1","attack_type":"Armed Assault","target":"Private Citizens & Property"},{"id":"1999Q2","lat":"-8.560655","lng":"125.584969","city":"Audian","group":"Besi Merah Putih Militia","nkill":"0","attack_type":"Armed Assault","target":"Private Citizens & Property"},{"id":"1999Q2","lat":"5.237222","lng":"96.9925","city":"Pulau Rungkom","group":"Unknown","nkill":"0","attack_type":"Bombing\/Explosion","target":"Military"},{"id":"1999Q2","lat":"-8.55902","lng":"125.578194","city":"Dili","group":"Anti-Independence extremists","nkill":"0","attack_type":"Armed Assault","target":"Private Citizens & Property"},{"id":"1999Q2","lat":"-8.55902","lng":"125.578194","city":"Dili","group":"Aitarak Militia","nkill":"0","attack_type":"Armed Assault","target":"Private Citizens & Property"},{"id":"1999Q2","lat":"-6.20882099999999","lng":"106.846046","city":"Jakarta","group":"People's Sovereignty Party (PDR)","nkill":"0","attack_type":"Facility\/Infrastructure Attack","target":"NGO"},{"id":"1999Q2","lat":"4.15405","lng":"96.143965","city":"West Aceh Regency","group":"Separatists","nkill":"9","attack_type":"Armed Assault","target":"Police"},{"id":"1999Q2","lat":"-5.134485","lng":"119.41877","city":"Ujungpandang","group":"Unknown","nkill":"0","attack_type":"Armed Assault","target":"Government (General)"},{"id":"1999Q2","lat":"5.54999","lng":"95.316667","city":"Lingkok","group":"Unknown","nkill":"2","attack_type":"Armed Assault","target":"Military"},{"id":"1999Q2","lat":"4.358267","lng":"98.1755939999999","city":"Keudee Geureubak","group":"Separatists","nkill":"3","attack_type":"Hostage Taking (Kidnapping)","target":"Private Citizens & Property"},{"id":"1999Q2","lat":"5.38055599999999","lng":"95.954722","city":"Pidie","group":"Unknown","nkill":"2","attack_type":"Armed Assault","target":"Military"},{"id":"1999Q2","lat":"2.64413","lng":"97.790807","city":"Trumon","group":"Unknown","nkill":"1","attack_type":"Armed Assault","target":"Government (General)"},{"id":"1999Q2","lat":"5.541471","lng":"95.342957","city":"Lamno Sub-district","group":"Unknown","nkill":"2","attack_type":"Armed Assault","target":"Military"},{"id":"1999Q2","lat":"5.55","lng":"95.316667","city":"Mount Geurute","group":"Unknown","nkill":"2","attack_type":"Armed Assault","target":"Military"},{"id":"1999Q2","lat":"-8.664722","lng":"125.358333","city":"Manufatia","group":"Separatists","nkill":"1","attack_type":"Hostage Taking (Kidnapping)","target":"Private Citizens & Property"},{"id":"1999Q2","lat":"5.1234","lng":"97.3503","city":"Cotblang","group":"Free Aceh Movement (GAM)","nkill":"0","attack_type":"Armed Assault","target":"Military"},{"id":"1999Q2","lat":"-8.55902","lng":"125.578194","city":"Dili","group":"Unknown","nkill":"0","attack_type":"Armed Assault","target":"Police"}]},"3":{"data":[{"id":"1999Q3","lat":"-8.758333","lng":"125.2075","city":"Sare","group":"Besi Merah Putih Militia","nkill":"1","attack_type":"Armed Assault","target":"Government (Diplomatic)"},{"id":"1999Q3","lat":"5.118257","lng":"97.210942","city":"Samudera District","group":"Separatists","nkill":"1","attack_type":"Armed Assault","target":"Police"},{"id":"1999Q3","lat":"-2.686374","lng":"140.814829","city":"Arso District","group":"Free Papua Movement (OPM-Organisasi Papua Merdeka)","nkill":"0","attack_type":"Hostage Taking (Kidnapping)","target":"Government (General)"},{"id":"1999Q3","lat":"5.541471","lng":"95.342957","city":"Krueng Raya","group":"Unknown","nkill":"0","attack_type":"Facility\/Infrastructure Attack","target":"Educational Institution"},{"id":"1999Q3","lat":"5.034886","lng":"97.270681","city":"Matangkuli","group":"Free Aceh Movement (GAM)","nkill":"1","attack_type":"Armed Assault","target":"Military"},{"id":"1999Q3","lat":"-8.503889","lng":"126.236667","city":"Lor","group":"Mahidi","nkill":"1","attack_type":"Unarmed Assault","target":"Private Citizens & Property"},{"id":"1999Q3","lat":"5.105307","lng":"97.405357","city":"Baktia","group":"Unknown","nkill":"2","attack_type":"Armed Assault","target":"Military"},{"id":"1999Q3","lat":"-8.55902","lng":"125.578194","city":"Dili","group":"Unknown","nkill":"0","attack_type":"Facility\/Infrastructure Attack","target":"Transportation"},{"id":"1999Q3","lat":"4.843278","lng":"96.1280829999999","city":"Reng Krueng","group":"Free Aceh Movement (GAM)","nkill":"5","attack_type":"Armed Assault","target":"Military"},{"id":"1999Q3","lat":"5.049009","lng":"97.27198","city":"Blang Bidok","group":"Unknown","nkill":"0","attack_type":"Hostage Taking (Kidnapping)","target":"Business"},{"id":"1999Q3","lat":"-8.55902","lng":"125.578194","city":"Dili","group":"Unknown","nkill":"1","attack_type":"Armed Assault","target":"Private Citizens & Property"},{"id":"1999Q3","lat":"5.545248","lng":"95.32401","city":"Unknown","group":"Unknown","nkill":"1","attack_type":"Armed Assault","target":"Military"},{"id":"1999Q3","lat":"-8.55902","lng":"125.578194","city":"Dili","group":"Pro-Indonesia extremists","nkill":"1","attack_type":"Armed Assault","target":"Private Citizens & Property"},{"id":"1999Q3","lat":"-8.55902","lng":"125.578194","city":"Dili","group":"Unknown","nkill":"3","attack_type":"Unknown","target":"Government (Diplomatic)"},{"id":"1999Q3","lat":"-8.983333","lng":"125.216666999999","city":"Maliana","group":"Unknown","nkill":"2","attack_type":"Unknown","target":"Government (Diplomatic)"},{"id":"1999Q3","lat":"-8.932573","lng":"125.396809","city":"Atsabe","group":"Unknown","nkill":"1","attack_type":"Unknown","target":"Government (Diplomatic)"},{"id":"1999Q3","lat":"-9.104512","lng":"124.897553","city":"Atambua","group":"Unknown","nkill":"3","attack_type":"Armed Assault","target":"Government (Diplomatic)"},{"id":"1999Q3","lat":"-8.55902","lng":"125.578194","city":"Dili","group":"Pro-Indonesia extremists","nkill":"0","attack_type":"Facility\/Infrastructure Attack","target":"Business"},{"id":"1999Q3","lat":"-8.583333","lng":"125.35","city":"Liquica","group":"Unknown","nkill":"0","attack_type":"Armed Assault","target":"Government (Diplomatic)"},{"id":"1999Q3","lat":"-8.55902","lng":"125.578194","city":"Dili","group":"Unknown","nkill":"0","attack_type":"Facility\/Infrastructure Attack","target":"Business"},{"id":"1999Q3","lat":"-8.55902","lng":"125.578194","city":"Dili","group":"Unknown","nkill":"0","attack_type":"Facility\/Infrastructure Attack","target":"Business"},{"id":"1999Q3","lat":"-8.55902","lng":"125.578194","city":"Dili","group":"Unknown","nkill":"1","attack_type":"Armed Assault","target":"Journalists & Media"},{"id":"1999Q3","lat":"-3.572643","lng":"128.659307","city":"Saparua","group":"Unknown","nkill":"2","attack_type":"Armed Assault","target":"Private Citizens & Property"}]},"4":{"data":[{"id":"1999Q4","lat":"-6.20882099999999","lng":"106.846046","city":"Jakarta","group":"Unknown","nkill":"0","attack_type":"Facility\/Infrastructure Attack","target":"Educational Institution"},{"id":"1999Q4","lat":"5.102361","lng":"95.897173","city":"Pidie District","group":"Unknown","nkill":"0","attack_type":"Armed Assault","target":"Military"},{"id":"1999Q4","lat":"3.193265","lng":"98.30584","city":"Ule Geumpung","group":"Free Aceh Movement (GAM)","nkill":"2","attack_type":"Armed Assault","target":"Police"},{"id":"1999Q4","lat":"5.071716","lng":"97.21136","city":"Meurah Mulia","group":"Unknown","nkill":"1","attack_type":"Armed Assault","target":"Police"},{"id":"1999Q4","lat":"-8.983333","lng":"125.216666999999","city":"Maliana","group":"Unknown","nkill":"3","attack_type":"Armed Assault","target":"NGO"},{"id":"1999Q4","lat":"5.458794","lng":"95.477829","city":"Besar District","group":"Free Aceh Movement (GAM)","nkill":"1","attack_type":"Armed Assault","target":"Military"},{"id":"1999Q4","lat":"4.81665199999999","lng":"95.875123","city":"Krueng Sabee","group":"Unknown","nkill":"0","attack_type":"Bombing\/Explosion","target":"Police"},{"id":"1999Q4","lat":"-10.1801509999999","lng":"123.583933","city":"Kupang","group":"Unknown","nkill":"0","attack_type":"Unarmed Assault","target":"Private Citizens & Property"},{"id":"1999Q4","lat":"5.047171","lng":"96.685066","city":"Juli","group":"Unknown","nkill":"1","attack_type":"Armed Assault","target":"Military"},{"id":"1999Q4","lat":"-9.104512","lng":"124.897553","city":"Atambua","group":"Unknown","nkill":"0","attack_type":"Armed Assault","target":"Private Citizens & Property"},{"id":"1999Q4","lat":"5.541471","lng":"95.342957","city":"Geuceu Meunara","group":"Unknown","nkill":"0","attack_type":"Armed Assault","target":"Private Citizens & Property"}]}},"2000":{"1":{"data":[{"id":"2000Q1","lat":"5.09678","lng":"97.5326","city":"Simpang Ulim","group":"Free Aceh Movement (GAM)","nkill":"2","attack_type":"Armed Assault","target":"Police"},{"id":"2000Q1","lat":"4.707828","lng":"96.732788","city":"Aceh","group":"Free Aceh Movement (GAM)","nkill":"1","attack_type":"Armed Assault","target":"Police"},{"id":"2000Q1","lat":"5.232848","lng":"96.707867","city":"Ujoeng Blang","group":"Free Aceh Movement (GAM)","nkill":"4","attack_type":"Bombing\/Explosion","target":"Military"},{"id":"2000Q1","lat":"5.183798","lng":"97.141575","city":"Lhokseumawe","group":"Unknown","nkill":"0","attack_type":"Bombing\/Explosion","target":"Private Citizens & Property"},{"id":"2000Q1","lat":"-3.30606","lng":"128.961589","city":"Masohi","group":"Unknown","nkill":"0","attack_type":"Bombing\/Explosion","target":"Religious Figures\/Institutions"},{"id":"2000Q1","lat":"4.957778","lng":"96.949722","city":"Simpang Keramat","group":"Free Aceh Movement (GAM)","nkill":"1","attack_type":"Armed Assault","target":"Military"},{"id":"2000Q1","lat":"5.183798","lng":"97.141575","city":"Lhokseumawe","group":"Free Aceh Movement (GAM)","nkill":"0","attack_type":"Armed Assault","target":"Military"}]},"2":{"data":[{"id":"2000Q2","lat":"5.183798","lng":"97.141575","city":"Lhokseumawe","group":"Free Aceh Movement (GAM)","nkill":"0","attack_type":"Armed Assault","target":"Military"},{"id":"2000Q2","lat":"5.545248","lng":"95.32401","city":"Unknown","group":"Unknown","nkill":"0","attack_type":"Hostage Taking (Kidnapping)","target":"Utilities"},{"id":"2000Q2","lat":"4.449306","lng":"96.167968","city":"Lancang Barat","group":"Free Aceh Movement (GAM)","nkill":"1","attack_type":"Hostage Taking (Kidnapping)","target":"Military"},{"id":"2000Q2","lat":"3.585242","lng":"98.675598","city":"Medan","group":"Unknown","nkill":"0","attack_type":"Bombing\/Explosion","target":"Religious Figures\/Institutions"},{"id":"2000Q2","lat":"3.585242","lng":"98.675598","city":"Medan","group":"Unknown","nkill":"0","attack_type":"Bombing\/Explosion","target":"Business"},{"id":"2000Q2","lat":"4.978633","lng":"97.222142","city":"North Aceh","group":"Unknown","nkill":"1","attack_type":"Assassination","target":"Military"},{"id":"2000Q2","lat":"4.976033","lng":"96.588936","city":"Cot Trieng","group":"Free Aceh Movement (GAM)","nkill":"0","attack_type":"Armed Assault","target":"Police"},{"id":"2000Q2","lat":"5.200792","lng":"97.014849","city":"Blang Karieng","group":"Unknown","nkill":"0","attack_type":"Armed Assault","target":"Police"}]},"3":{"data":[{"id":"2000Q3","lat":"5.183798","lng":"97.141575","city":"Lhokesumawe","group":"Free Aceh Movement (GAM)","nkill":"4","attack_type":"Bombing\/Explosion","target":"Police"},{"id":"2000Q3","lat":"-6.20882099999999","lng":"106.846046","city":"Jakarta","group":"Unknown","nkill":"0","attack_type":"Bombing\/Explosion","target":"Government (General)"},{"id":"2000Q3","lat":"-6.20882099999999","lng":"106.846046","city":"Jakarta","group":"Unknown","nkill":"0","attack_type":"Bombing\/Explosion","target":"Government (General)"},{"id":"2000Q3","lat":"-6.20882099999999","lng":"106.846046","city":"Jakarta","group":"Jemaah Islamiya (JI)","nkill":"2","attack_type":"Assassination","target":"Government (Diplomatic)"},{"id":"2000Q3","lat":"-9.446667","lng":"124.478056","city":"Kefamenanu","group":"Militia Members","nkill":"0","attack_type":"Armed Assault","target":"Government (Diplomatic)"},{"id":"2000Q3","lat":"-9.104512","lng":"124.897553","city":"Atambua","group":"Unknown","nkill":"3","attack_type":"Armed Assault","target":"Government (Diplomatic)"},{"id":"2000Q3","lat":"-9.492408","lng":"124.955520999999","city":"Betun","group":"Unknown","nkill":"11","attack_type":"Unknown","target":"Private Citizens & Property"},{"id":"2000Q3","lat":"5.541471","lng":"95.342957","city":"Banda Aceh","group":"Unknown","nkill":"0","attack_type":"Bombing\/Explosion","target":"Police"},{"id":"2000Q3","lat":"5.541471","lng":"95.342957","city":"Banda Aceh","group":"Free Aceh Movement (GAM)","nkill":"0","attack_type":"Bombing\/Explosion","target":"Government (General)"},{"id":"2000Q3","lat":"5.541471","lng":"95.342957","city":"Banda Aceh","group":"Unknown","nkill":"0","attack_type":"Bombing\/Explosion","target":"Police"},{"id":"2000Q3","lat":"4.978633","lng":"97.222142","city":"North Aceh","group":"Free Aceh Movement (GAM)","nkill":"0","attack_type":"Bombing\/Explosion","target":"Police"},{"id":"2000Q3","lat":"5.051701","lng":"97.318123","city":"Lhoksukon subdistrict","group":"Free Aceh Movement (GAM)","nkill":"2","attack_type":"Armed Assault","target":"Military"},{"id":"2000Q3","lat":"-6.20882099999999","lng":"106.846046","city":"Jakarta","group":"Unknown","nkill":"15","attack_type":"Bombing\/Explosion","target":"Business"},{"id":"2000Q3","lat":"-6.20882099999999","lng":"106.846046","city":"Jakarta","group":"Unknown","nkill":"0","attack_type":"Bombing\/Explosion","target":"Government (Diplomatic)"},{"id":"2000Q3","lat":"3.585242","lng":"98.675598","city":"Medan","group":"Gunmen","nkill":"0","attack_type":"Armed Assault","target":"Religious Figures\/Institutions"},{"id":"2000Q3","lat":"5.358157","lng":"95.927079","city":"Dayah Tanoh","group":"Free Aceh Movement (GAM)","nkill":"3","attack_type":"Armed Assault","target":"Military"},{"id":"2000Q3","lat":"5.358157","lng":"95.927079","city":"Dayah Tanoh","group":"Free Aceh Movement (GAM)","nkill":"1","attack_type":"Armed Assault","target":"Military"},{"id":"2000Q3","lat":"5.541471","lng":"95.342957","city":"Banda Aceh","group":"Free Aceh Movement (GAM)","nkill":"1","attack_type":"Assassination","target":"Private Citizens & Property"},{"id":"2000Q3","lat":"-3.648426","lng":"128.16576","city":"Ambon","group":"Unknown","nkill":"0","attack_type":"Bombing\/Explosion","target":"Private Citizens & Property"},{"id":"2000Q3","lat":"5.183798","lng":"97.141575","city":"Lhokseumawe","group":"Free Aceh Movement (GAM)","nkill":"0","attack_type":"Armed Assault","target":"Police"},{"id":"2000Q3","lat":"5.183798","lng":"97.141575","city":"Lhokseumawe","group":"Free Aceh Movement (GAM)","nkill":"0","attack_type":"Bombing\/Explosion","target":"Military"},{"id":"2000Q3","lat":"5.3809","lng":"95.5105579999999","city":"Lampakuk","group":"Free Aceh Movement (GAM)","nkill":"0","attack_type":"Bombing\/Explosion","target":"Police"},{"id":"2000Q3","lat":"-3.228271","lng":"130.131225","city":"Bia","group":"Unknown","nkill":"1","attack_type":"Armed Assault","target":"Private Citizens & Property"},{"id":"2000Q3","lat":"-0.898583","lng":"119.850601","city":"Palu","group":"Unknown","nkill":"0","attack_type":"Facility\/Infrastructure Attack","target":"Private Citizens & Property"},{"id":"2000Q3","lat":"-6.20882099999999","lng":"106.846046","city":"Jakarta","group":"Anti-Communist Command (KAK)","nkill":"0","attack_type":"Bombing\/Explosion","target":"NGO"},{"id":"2000Q3","lat":"-6.20882099999999","lng":"106.846046","city":"Jakarta","group":"Unknown","nkill":"0","attack_type":"Bombing\/Explosion","target":"Business"},{"id":"2000Q3","lat":"5.541471","lng":"95.342957","city":"Banda Aceh","group":"Free Aceh Movement (GAM)","nkill":"0","attack_type":"Bombing\/Explosion","target":"Government (General)"},{"id":"2000Q3","lat":"5.541471","lng":"95.342957","city":"Banda Aceh","group":"Free Aceh Movement (GAM)","nkill":"0","attack_type":"Bombing\/Explosion","target":"Government (General)"}]},"4":{"data":[{"id":"2000Q4","lat":"-8.650874","lng":"116.324868","city":"Lombak","group":"Unknown","nkill":"0","attack_type":"Bombing\/Explosion","target":"Business"},{"id":"2000Q4","lat":"5.541471","lng":"95.342957","city":"Banda Aceh","group":"Free Aceh Movement (GAM)","nkill":"0","attack_type":"Armed Assault","target":"Police"},{"id":"2000Q4","lat":"-3.34163799999999","lng":"128.352878","city":"Kairatu","group":"Muslim extremists","nkill":"7","attack_type":"Bombing\/Explosion","target":"Private Citizens & Property"},{"id":"2000Q4","lat":"4.503384","lng":"98.01066","city":"Kuala Langsa","group":"Free Aceh Movement (GAM)","nkill":"2","attack_type":"Armed Assault","target":"Police"},{"id":"2000Q4","lat":"3.585242","lng":"98.675598","city":"Medan","group":"Unknown","nkill":"1","attack_type":"Bombing\/Explosion","target":"Religious Figures\/Institutions"},{"id":"2000Q4","lat":"-6.20882099999999","lng":"106.846046","city":"Jakarta","group":"Unknown","nkill":"0","attack_type":"Bombing\/Explosion","target":"Government (General)"},{"id":"2000Q4","lat":"-1.56969","lng":"127.453222","city":"Karlumen","group":"Muslims","nkill":"2","attack_type":"Armed Assault","target":"Private Citizens & Property"},{"id":"2000Q4","lat":"-3.29669","lng":"129.527507","city":"Utta","group":"Muslims","nkill":"2","attack_type":"Armed Assault","target":"Private Citizens & Property"},{"id":"2000Q4","lat":"-3.685745","lng":"128.189062999999","city":"Tansoa","group":"Muslims","nkill":"2","attack_type":"Armed Assault","target":"Private Citizens & Property"},{"id":"2000Q4","lat":"3.585242","lng":"98.675598","city":"Medan","group":"Unknown","nkill":"0","attack_type":"Bombing\/Explosion","target":"Government (General)"},{"id":"2000Q4","lat":"-3.332054","lng":"128.366703","city":"Uraur","group":"Muslims","nkill":"1","attack_type":"Armed Assault","target":"Private Citizens & Property"},{"id":"2000Q4","lat":"-3.34163799999999","lng":"128.352878","city":"Kairatu","group":"Muslims","nkill":"50","attack_type":"Unknown","target":"Private Citizens & Property"},{"id":"2000Q4","lat":"5.080556","lng":"97.405278","city":"Matang Baru","group":"Unknown","nkill":"3","attack_type":"Hostage Taking (Kidnapping)","target":"NGO"},{"id":"2000Q4","lat":"-3.648426","lng":"128.16576","city":"Ambon","group":"Muslims","nkill":"1","attack_type":"Bombing\/Explosion","target":"Private Citizens & Property"},{"id":"2000Q4","lat":"-6.569032","lng":"107.75753","city":"Subang","group":"Islamic Defenders' Front (FPI)","nkill":"1","attack_type":"Armed Assault","target":"Private Citizens & Property"},{"id":"2000Q4","lat":"5.183798","lng":"97.141575","city":"Lhokseumawe","group":"Free Aceh Movement (GAM)","nkill":"0","attack_type":"Armed Assault","target":"Airports & Aircraft"},{"id":"2000Q4","lat":"-7.797224","lng":"110.368797","city":"Yogyakarta","group":"Unknown","nkill":"0","attack_type":"Bombing\/Explosion","target":"Government (General)"},{"id":"2000Q4","lat":"-6.20882099999999","lng":"106.846046","city":"Jakarta","group":"Jemaah Islamiya (JI)","nkill":"0","attack_type":"Bombing\/Explosion","target":"Religious Figures\/Institutions"},{"id":"2000Q4","lat":"-6.20882099999999","lng":"106.846046","city":"Jakarta","group":"Jemaah Islamiya (JI)","nkill":"0","attack_type":"Bombing\/Explosion","target":"Religious Figures\/Institutions"},{"id":"2000Q4","lat":"-6.20882099999999","lng":"106.846046","city":"Jakarta","group":"Jemaah Islamiya (JI)","nkill":"4","attack_type":"Bombing\/Explosion","target":"Religious Figures\/Institutions"},{"id":"2000Q4","lat":"0.533333","lng":"101.45","city":"Pekanburu","group":"Jemaah Islamiya (JI)","nkill":"5","attack_type":"Bombing\/Explosion","target":"Religious Figures\/Institutions"},{"id":"2000Q4","lat":"3.585242","lng":"98.675598","city":"Medan","group":"Jemaah Islamiya (JI)","nkill":"0","attack_type":"Bombing\/Explosion","target":"Religious Figures\/Institutions"},{"id":"2000Q4","lat":"-6.90870399999999","lng":"107.610683","city":"Bandung","group":"Jemaah Islamiya (JI)","nkill":"4","attack_type":"Bombing\/Explosion","target":"Religious Figures\/Institutions"},{"id":"2000Q4","lat":"1.05325499999999","lng":"104.030684999999","city":"Batam","group":"Jemaah Islamiya (JI)","nkill":"0","attack_type":"Bombing\/Explosion","target":"Religious Figures\/Institutions"},{"id":"2000Q4","lat":"-7.472222","lng":"112.433611","city":"Mojokerto","group":"Jemaah Islamiya (JI)","nkill":"1","attack_type":"Bombing\/Explosion","target":"Religious Figures\/Institutions"},{"id":"2000Q4","lat":"-7.168333","lng":"106.666389","city":"Mataram","group":"Jemaah Islamiya (JI)","nkill":"0","attack_type":"Bombing\/Explosion","target":"Religious Figures\/Institutions"},{"id":"2000Q4","lat":"-6.92405","lng":"106.922203","city":"Sukabumi","group":"Jemaah Islamiya (JI)","nkill":"3","attack_type":"Bombing\/Explosion","target":"Religious Figures\/Institutions"},{"id":"2000Q4","lat":"-7.464444","lng":"112.686388999999","city":"Sidomulyo","group":"Jemaah Islamiya (JI)","nkill":"1","attack_type":"Bombing\/Explosion","target":"Religious Figures\/Institutions"},{"id":"2000Q4","lat":"-6.20882099999999","lng":"106.846046","city":"Jakarta","group":"Jemaah Islamiya (JI)","nkill":"0","attack_type":"Bombing\/Explosion","target":"Religious Figures\/Institutions"},{"id":"2000Q4","lat":"-6.20882099999999","lng":"106.846046","city":"Jakarta","group":"Jemaah Islamiya (JI)","nkill":"1","attack_type":"Bombing\/Explosion","target":"Religious Figures\/Institutions"},{"id":"2000Q4","lat":"-6.20882099999999","lng":"106.846046","city":"Jakarta","group":"Jemaah Islamiya (JI)","nkill":"0","attack_type":"Bombing\/Explosion","target":"Religious Figures\/Institutions"},{"id":"2000Q4","lat":"-6.241586","lng":"107.148056","city":"Bekasi","group":"Jemaah Islamiya (JI)","nkill":"0","attack_type":"Bombing\/Explosion","target":"Religious Figures\/Institutions"},{"id":"2000Q4","lat":"-6.92405","lng":"106.922203","city":"Sukabumi","group":"Jemaah Islamiya (JI)","nkill":"0","attack_type":"Bombing\/Explosion","target":"Religious Figures\/Institutions"},{"id":"2000Q4","lat":"-7.50681199999999","lng":"108.569412","city":"Ciamis","group":"Jemaah Islamiya (JI)","nkill":"0","attack_type":"Bombing\/Explosion","target":"Unknown"},{"id":"2000Q4","lat":"1.05325499999999","lng":"104.030684999999","city":"Batam","group":"Jemaah Islamiya (JI)","nkill":"0","attack_type":"Bombing\/Explosion","target":"Religious Figures\/Institutions"},{"id":"2000Q4","lat":"1.05325499999999","lng":"104.030684999999","city":"Batam","group":"Jemaah Islamiya (JI)","nkill":"0","attack_type":"Bombing\/Explosion","target":"Religious Figures\/Institutions"},{"id":"2000Q4","lat":"1.05325499999999","lng":"104.030684999999","city":"Batam","group":"Jemaah Islamiya (JI)","nkill":"0","attack_type":"Bombing\/Explosion","target":"Religious Figures\/Institutions"},{"id":"2000Q4","lat":"3.585242","lng":"98.675598","city":"Medan","group":"Jemaah Islamiya (JI)","nkill":"0","attack_type":"Bombing\/Explosion","target":"Religious Figures\/Institutions"},{"id":"2000Q4","lat":"3.585242","lng":"98.675598","city":"Medan","group":"Jemaah Islamiya (JI)","nkill":"0","attack_type":"Bombing\/Explosion","target":"Religious Figures\/Institutions"},{"id":"2000Q4","lat":"3.585242","lng":"98.675598","city":"Medan","group":"Jemaah Islamiya (JI)","nkill":"0","attack_type":"Bombing\/Explosion","target":"Religious Figures\/Institutions"},{"id":"2000Q4","lat":"3.585242","lng":"98.675598","city":"Medan","group":"Jemaah Islamiya (JI)","nkill":"0","attack_type":"Bombing\/Explosion","target":"Religious Figures\/Institutions"},{"id":"2000Q4","lat":"3.585242","lng":"98.675598","city":"Medan","group":"Jemaah Islamiya (JI)","nkill":"0","attack_type":"Bombing\/Explosion","target":"Religious Figures\/Institutions"},{"id":"2000Q4","lat":"3.585242","lng":"98.675598","city":"Medan","group":"Jemaah Islamiya (JI)","nkill":"0","attack_type":"Bombing\/Explosion","target":"Religious Figures\/Institutions"},{"id":"2000Q4","lat":"3.585242","lng":"98.675598","city":"Medan","group":"Jemaah Islamiya (JI)","nkill":"0","attack_type":"Bombing\/Explosion","target":"Religious Figures\/Institutions"},{"id":"2000Q4","lat":"3.585242","lng":"98.675598","city":"Medan","group":"Jemaah Islamiya (JI)","nkill":"0","attack_type":"Bombing\/Explosion","target":"Religious Figures\/Institutions"},{"id":"2000Q4","lat":"3.585242","lng":"98.675598","city":"Medan","group":"Jemaah Islamiya (JI)","nkill":"0","attack_type":"Bombing\/Explosion","target":"Religious Figures\/Institutions"},{"id":"2000Q4","lat":"3.585242","lng":"98.675598","city":"Medan","group":"Jemaah Islamiya (JI)","nkill":"0","attack_type":"Bombing\/Explosion","target":"Religious Figures\/Institutions"},{"id":"2000Q4","lat":"2.96","lng":"99.06","city":"Pematang Siantar","group":"Jemaah Islamiya (JI)","nkill":"0","attack_type":"Bombing\/Explosion","target":"Religious Figures\/Institutions"},{"id":"2000Q4","lat":"2.96","lng":"99.06","city":"Pematang Siantar","group":"Jemaah Islamiya (JI)","nkill":"0","attack_type":"Bombing\/Explosion","target":"Religious Figures\/Institutions"},{"id":"2000Q4","lat":"2.96","lng":"99.06","city":"Pematang Siantar","group":"Jemaah Islamiya (JI)","nkill":"0","attack_type":"Bombing\/Explosion","target":"Religious Figures\/Institutions"},{"id":"2000Q4","lat":"2.96","lng":"99.06","city":"Pematang Siantar","group":"Jemaah Islamiya (JI)","nkill":"0","attack_type":"Bombing\/Explosion","target":"Religious Figures\/Institutions"},{"id":"2000Q4","lat":"-7.472222","lng":"112.433611","city":"Mojokerto","group":"Jemaah Islamiya (JI)","nkill":"0","attack_type":"Bombing\/Explosion","target":"Religious Figures\/Institutions"},{"id":"2000Q4","lat":"-7.472222","lng":"112.433611","city":"Mojokerto","group":"Jemaah Islamiya (JI)","nkill":"0","attack_type":"Bombing\/Explosion","target":"Religious Figures\/Institutions"},{"id":"2000Q4","lat":"-7.472222","lng":"112.433611","city":"Mojokerto","group":"Jemaah Islamiya (JI)","nkill":"0","attack_type":"Bombing\/Explosion","target":"Religious Figures\/Institutions"},{"id":"2000Q4","lat":"-7.168333","lng":"106.666389","city":"Mataram","group":"Jemaah Islamiya (JI)","nkill":"0","attack_type":"Bombing\/Explosion","target":"Religious Figures\/Institutions"},{"id":"2000Q4","lat":"-7.168333","lng":"106.666389","city":"Mataram","group":"Jemaah Islamiya (JI)","nkill":"0","attack_type":"Bombing\/Explosion","target":"Private Citizens & Property"}]}},"2001":{"1":{"data":[{"id":"2001Q1","lat":"-8.496041","lng":"140.394553","city":"Merauke","group":"Free Papua Movement (OPM-Organisasi Papua Merdeka)","nkill":"0","attack_type":"Hostage Taking (Kidnapping)","target":"Business"},{"id":"2001Q1","lat":"-2.794995","lng":"129.493397999999","city":"Wahai","group":"Unknown","nkill":"0","attack_type":"Bombing\/Explosion","target":"Business"},{"id":"2001Q1","lat":"-2.794995","lng":"129.493397999999","city":"Wahai","group":"Unknown","nkill":"0","attack_type":"Bombing\/Explosion","target":"Government (General)"},{"id":"2001Q1","lat":"-3.648426","lng":"128.16576","city":"Ambon","group":"Unknown","nkill":"0","attack_type":"Bombing\/Explosion","target":"Government (General)"},{"id":"2001Q1","lat":"-6.20882099999999","lng":"106.846046","city":"Jakarta","group":"Unknown","nkill":"0","attack_type":"Bombing\/Explosion","target":"Private Citizens & Property"},{"id":"2001Q1","lat":"4.472565","lng":"97.973103","city":"Langsa","group":"Gunmen","nkill":"3","attack_type":"Armed Assault","target":"Business"},{"id":"2001Q1","lat":"4.474444","lng":"97.983889","city":"Sungai Pauh","group":"Unknown","nkill":"2","attack_type":"Armed Assault","target":"Journalists & Media"},{"id":"2001Q1","lat":"5.183798","lng":"97.141575","city":"Lhokseumawe","group":"Unknown","nkill":"3","attack_type":"Unknown","target":"Private Citizens & Property"},{"id":"2001Q1","lat":"5.183798","lng":"97.141575","city":"Lhokseumawe","group":"Unknown","nkill":"2","attack_type":"Unknown","target":"Private Citizens & Property"},{"id":"2001Q1","lat":"5.541471","lng":"95.342957","city":"Banda Aceh","group":"Unknown","nkill":"3","attack_type":"Unarmed Assault","target":"Private Citizens & Property"},{"id":"2001Q1","lat":"4.696879","lng":"96.776733","city":"Garot Kupula Jurong","group":"Unknown","nkill":"2","attack_type":"Armed Assault","target":"Private Citizens & Property"},{"id":"2001Q1","lat":"-6.20882099999999","lng":"106.846046","city":"Jakarta","group":"Unknown","nkill":"0","attack_type":"Bombing\/Explosion","target":"Business"},{"id":"2001Q1","lat":"-6.178306","lng":"106.631888999999","city":"Tangerang","group":"Unknown","nkill":"0","attack_type":"Bombing\/Explosion","target":"Transportation"},{"id":"2001Q1","lat":"-2.533333","lng":"112.95","city":"Sampit","group":"Dayak gang","nkill":"8","attack_type":"Unknown","target":"Private Citizens & Property"},{"id":"2001Q1","lat":"5.541471","lng":"95.342957","city":"Banda Aceh","group":"Free Aceh Movement (GAM)","nkill":"1","attack_type":"Armed Assault","target":"Police"},{"id":"2001Q1","lat":"5.545248","lng":"95.32401","city":"Unknown","group":"Free Aceh Movement (GAM)","nkill":"0","attack_type":"Assassination","target":"Military"},{"id":"2001Q1","lat":"4.696879","lng":"96.721802","city":"Darussalam","group":"Free Aceh Movement (GAM)","nkill":"1","attack_type":"Armed Assault","target":"Private Citizens & Property"},{"id":"2001Q1","lat":"3.265931","lng":"97.177063","city":"Tapaktuan","group":"Unknown","nkill":"3","attack_type":"Armed Assault","target":"NGO"}]},"2":{"data":[{"id":"2001Q2","lat":"4.707828","lng":"96.732788","city":"Aceh","group":"Free Aceh Movement (GAM)","nkill":"0","attack_type":"Bombing\/Explosion","target":"Business"},{"id":"2001Q2","lat":"5.183798","lng":"97.141575","city":"Lhokseumawe","group":"Free Aceh Movement (GAM)","nkill":"2","attack_type":"Armed Assault","target":"Police"},{"id":"2001Q2","lat":"5.541471","lng":"95.342957","city":"Jamur","group":"Unknown","nkill":"2","attack_type":"Unknown","target":"Private Citizens & Property"},{"id":"2001Q2","lat":"-6.209167","lng":"106.826666999999","city":"Setiabudi","group":"Unknown","nkill":"2","attack_type":"Bombing\/Explosion","target":"Private Citizens & Property"},{"id":"2001Q2","lat":"-5.42857","lng":"105.273609","city":"Pahoman","group":"Unknown","nkill":"0","attack_type":"Facility\/Infrastructure Attack","target":"Government (General)"},{"id":"2001Q2","lat":"-5.403175","lng":"105.201975","city":"Kemiling","group":"Unknown","nkill":"0","attack_type":"Facility\/Infrastructure Attack","target":"Government (General)"},{"id":"2001Q2","lat":"-0.861453","lng":"134.062042","city":"Manokwari","group":"Separatists","nkill":"6","attack_type":"Armed Assault","target":"Police"},{"id":"2001Q2","lat":"5.545248","lng":"95.32401","city":"Unknown","group":"Unknown","nkill":"0","attack_type":"Bombing\/Explosion","target":"Business"}]},"3":{"data":[{"id":"2001Q3","lat":"-6.20882099999999","lng":"106.846046","city":"Jakarta","group":"Unknown","nkill":"0","attack_type":"Bombing\/Explosion","target":"Religious Figures\/Institutions"},{"id":"2001Q3","lat":"-6.20882099999999","lng":"106.846046","city":"Jakarta","group":"Unknown","nkill":"0","attack_type":"Bombing\/Explosion","target":"Business"},{"id":"2001Q3","lat":"5.183798","lng":"97.141575","city":"Lhokseumawe","group":"Unknown","nkill":"0","attack_type":"Bombing\/Explosion","target":"Private Citizens & Property"},{"id":"2001Q3","lat":"4.52714199999999","lng":"97.607574","city":"East Aceh Regency","group":"Free Aceh Movement (GAM)","nkill":"0","attack_type":"Hostage Taking (Kidnapping)","target":"Journalists & Media"},{"id":"2001Q3","lat":"-7.289166","lng":"112.734398","city":"Surabaya","group":"Unknown","nkill":"1","attack_type":"Bombing\/Explosion","target":"Private Citizens & Property"},{"id":"2001Q3","lat":"4.52714199999999","lng":"97.607574","city":"East Aceh Regency","group":"Free Aceh Movement (GAM)","nkill":"1","attack_type":"Hostage Taking (Kidnapping)","target":"Private Citizens & Property"},{"id":"2001Q3","lat":"5.166216","lng":"96.357154","city":"Batee Iliek","group":"Free Aceh Movement (GAM)","nkill":"4","attack_type":"Armed Assault","target":"Police"},{"id":"2001Q3","lat":"4.962522","lng":"97.752371","city":"Idi Rayeuk Sub district","group":"Free Aceh Movement (GAM)","nkill":"31","attack_type":"Armed Assault","target":"Business"},{"id":"2001Q3","lat":"4.52714199999999","lng":"97.607574","city":"East Aceh Regency","group":"Free Aceh Movement (GAM)","nkill":"0","attack_type":"Facility\/Infrastructure Attack","target":"Educational Institution"},{"id":"2001Q3","lat":"4.52714199999999","lng":"97.607574","city":"East Aceh Regency","group":"Free Aceh Movement (GAM)","nkill":"0","attack_type":"Facility\/Infrastructure Attack","target":"Educational Institution"},{"id":"2001Q3","lat":"4.52714199999999","lng":"97.607574","city":"East Aceh Regency","group":"Free Aceh Movement (GAM)","nkill":"0","attack_type":"Facility\/Infrastructure Attack","target":"Educational Institution"},{"id":"2001Q3","lat":"5.037253","lng":"97.590466","city":"Julok Sub-district","group":"Free Aceh Movement (GAM)","nkill":"1","attack_type":"Facility\/Infrastructure Attack","target":"Police"},{"id":"2001Q3","lat":"5.183798","lng":"97.141575","city":"Lhokseumawe","group":"Free Aceh Movement (GAM)","nkill":"0","attack_type":"Bombing\/Explosion","target":"Government (General)"},{"id":"2001Q3","lat":"5.183798","lng":"97.141575","city":"Lhokseumawe","group":"Free Aceh Movement (GAM)","nkill":"0","attack_type":"Bombing\/Explosion","target":"Educational Institution"},{"id":"2001Q3","lat":"5.183798","lng":"97.141575","city":"Lhokseumawe","group":"Free Aceh Movement (GAM)","nkill":"0","attack_type":"Bombing\/Explosion","target":"Educational Institution"},{"id":"2001Q3","lat":"5.183798","lng":"97.141575","city":"Lhokseumawe","group":"Free Aceh Movement (GAM)","nkill":"0","attack_type":"Bombing\/Explosion","target":"Educational Institution"},{"id":"2001Q3","lat":"4.52714199999999","lng":"97.607574","city":"East Aceh Regency","group":"Free Aceh Movement (GAM)","nkill":"0","attack_type":"Facility\/Infrastructure Attack","target":"Transportation"},{"id":"2001Q3","lat":"4.69149","lng":"97.9128959999999","city":"Alue Rangan","group":"Free Aceh Movement (GAM)","nkill":"0","attack_type":"Armed Assault","target":"NGO"},{"id":"2001Q3","lat":"5.541471","lng":"95.342957","city":"Banda Aceh","group":"Free Aceh Movement (GAM)","nkill":"0","attack_type":"Facility\/Infrastructure Attack","target":"Educational Institution"},{"id":"2001Q3","lat":"5.541471","lng":"95.342957","city":"Banda Aceh","group":"Free Aceh Movement (GAM)","nkill":"0","attack_type":"Facility\/Infrastructure Attack","target":"Educational Institution"},{"id":"2001Q3","lat":"4.707828","lng":"96.732788","city":"Aceh Besar Regency","group":"Free Aceh Movement (GAM)","nkill":"0","attack_type":"Facility\/Infrastructure Attack","target":"Educational Institution"},{"id":"2001Q3","lat":"4.707828","lng":"96.732788","city":"Aceh Besar Regency","group":"Free Aceh Movement (GAM)","nkill":"0","attack_type":"Facility\/Infrastructure Attack","target":"Educational Institution"},{"id":"2001Q3","lat":"4.707828","lng":"96.732788","city":"Aceh Besar Regency","group":"Free Aceh Movement (GAM)","nkill":"0","attack_type":"Facility\/Infrastructure Attack","target":"Educational Institution"},{"id":"2001Q3","lat":"4.52714199999999","lng":"97.607574","city":"East Aceh Regency","group":"Free Aceh Movement (GAM)","nkill":"0","attack_type":"Facility\/Infrastructure Attack","target":"Transportation"},{"id":"2001Q3","lat":"4.978633","lng":"97.222142","city":"North Aceh Regency","group":"Free Aceh Movement (GAM)","nkill":"0","attack_type":"Bombing\/Explosion","target":"Journalists & Media"},{"id":"2001Q3","lat":"-3.648426","lng":"128.16576","city":"Ambon","group":"Unknown","nkill":"3","attack_type":"Bombing\/Explosion","target":"Transportation"},{"id":"2001Q3","lat":"5.541471","lng":"95.342957","city":"Banda Aceh","group":"Free Aceh Movement (GAM)","nkill":"0","attack_type":"Bombing\/Explosion","target":"Transportation"},{"id":"2001Q3","lat":"5.545248","lng":"95.32401","city":"Unknown","group":"Free Aceh Movement (GAM)","nkill":"0","attack_type":"Assassination","target":"Business"},{"id":"2001Q3","lat":"5.541471","lng":"95.342957","city":"Banda Aceh","group":"Free Aceh Movement (GAM)","nkill":"0","attack_type":"Bombing\/Explosion","target":"Educational Institution"},{"id":"2001Q3","lat":"4.707828","lng":"96.732788","city":"Aceh Besar Regency","group":"Free Aceh Movement (GAM)","nkill":"2","attack_type":"Bombing\/Explosion","target":"Utilities"},{"id":"2001Q3","lat":"5.541471","lng":"95.342957","city":"Banda Aceh","group":"Free Aceh Movement (GAM)","nkill":"0","attack_type":"Bombing\/Explosion","target":"Business"},{"id":"2001Q3","lat":"5.541471","lng":"95.342957","city":"Banda Aceh","group":"Free Aceh Movement (GAM)","nkill":"0","attack_type":"Bombing\/Explosion","target":"Business"},{"id":"2001Q3","lat":"5.541471","lng":"95.342957","city":"Banda Aceh","group":"Free Aceh Movement (GAM)","nkill":"0","attack_type":"Bombing\/Explosion","target":"Business"},{"id":"2001Q3","lat":"5.541471","lng":"95.342957","city":"Banda Aceh","group":"Free Aceh Movement (GAM)","nkill":"0","attack_type":"Bombing\/Explosion","target":"Business"},{"id":"2001Q3","lat":"5.541471","lng":"95.342957","city":"Banda Aceh","group":"Free Aceh Movement (GAM)","nkill":"2","attack_type":"Bombing\/Explosion","target":"Government (General)"},{"id":"2001Q3","lat":"4.52714199999999","lng":"97.607574","city":"East Aceh Regency","group":"Free Aceh Movement (GAM)","nkill":"0","attack_type":"Hostage Taking (Kidnapping)","target":"Police"},{"id":"2001Q3","lat":"5.172649","lng":"97.1500729999999","city":"Pusong Baru","group":"Free Aceh Movement (GAM)","nkill":"0","attack_type":"Bombing\/Explosion","target":"Private Citizens & Property"},{"id":"2001Q3","lat":"5.190169","lng":"97.1374319999999","city":"Tempok Tengah","group":"Free Aceh Movement (GAM)","nkill":"1","attack_type":"Bombing\/Explosion","target":"Police"},{"id":"2001Q3","lat":"5.183798","lng":"97.141575","city":"Lhokseumawe","group":"Free Aceh Movement (GAM)","nkill":"0","attack_type":"Bombing\/Explosion","target":"Utilities"},{"id":"2001Q3","lat":"4.472565","lng":"97.973103","city":"Langsa","group":"Free Aceh Movement (GAM)","nkill":"9","attack_type":"Hostage Taking (Kidnapping)","target":"Private Citizens & Property"},{"id":"2001Q3","lat":"5.541471","lng":"95.342957","city":"Banda Aceh","group":"Unknown","nkill":"0","attack_type":"Bombing\/Explosion","target":"Government (General)"},{"id":"2001Q3","lat":"5.107365","lng":"97.259891","city":"Syamtalira Aron","group":"Free Aceh Movement (GAM)","nkill":"1","attack_type":"Bombing\/Explosion","target":"Private Citizens & Property"},{"id":"2001Q3","lat":"3.426665","lng":"97.08095900000001","city":"Lhok Aman","group":"Free Aceh Movement (GAM)","nkill":"0","attack_type":"Armed Assault","target":"Private Citizens & Property"},{"id":"2001Q3","lat":"5.545248","lng":"95.32401","city":"Unknown","group":"Unknown","nkill":"0","attack_type":"Armed Assault","target":"Police"},{"id":"2001Q3","lat":"5.183798","lng":"97.141575","city":"Lhokseumawe","group":"Free Aceh Movement (GAM)","nkill":"0","attack_type":"Bombing\/Explosion","target":"Educational Institution"},{"id":"2001Q3","lat":"4.951859","lng":"97.769207","city":"Keudee Aceh","group":"Free Aceh Movement (GAM)","nkill":"0","attack_type":"Bombing\/Explosion","target":"Government (General)"},{"id":"2001Q3","lat":"5.541471","lng":"95.342957","city":"Banda Aceh","group":"Free Aceh Movement (GAM)","nkill":"0","attack_type":"Bombing\/Explosion","target":"Business"},{"id":"2001Q3","lat":"4.814156","lng":"96.624997","city":"Ketol District","group":"Free Aceh Movement (GAM)","nkill":"2","attack_type":"Bombing\/Explosion","target":"Private Citizens & Property"},{"id":"2001Q3","lat":"5.423836","lng":"95.903545","city":"Kuala Batee","group":"Free Aceh Movement (GAM)","nkill":"5","attack_type":"Hostage Taking (Kidnapping)","target":"Private Citizens & Property"},{"id":"2001Q3","lat":"4.52714199999999","lng":"97.607574","city":"East Aceh Regency","group":"Free Aceh Movement (GAM)","nkill":"0","attack_type":"Hostage Taking (Kidnapping)","target":"Business"},{"id":"2001Q3","lat":"5.183798","lng":"97.141575","city":"Lhokseumawe","group":"Unknown","nkill":"0","attack_type":"Bombing\/Explosion","target":"Government (General)"},{"id":"2001Q3","lat":"5.541471","lng":"95.342957","city":"Banda Aceh","group":"Free Aceh Movement (GAM)","nkill":"0","attack_type":"Bombing\/Explosion","target":"Police"},{"id":"2001Q3","lat":"-3.648426","lng":"128.16576","city":"Ambon","group":"Unknown","nkill":"2","attack_type":"Bombing\/Explosion","target":"Private Citizens & Property"},{"id":"2001Q3","lat":"5.541471","lng":"95.342957","city":"Banda Aceh","group":"Unknown","nkill":"0","attack_type":"Bombing\/Explosion","target":"Business"},{"id":"2001Q3","lat":"-2.11666699999999","lng":"133.533333","city":"Bintuni","group":"Free Papua Movement (OPM-Organisasi Papua Merdeka)","nkill":"0","attack_type":"Facility\/Infrastructure Attack","target":"Police"},{"id":"2001Q3","lat":"-1.868727","lng":"138.743607","city":"Sarmi","group":"Free Papua Movement (OPM-Organisasi Papua Merdeka)","nkill":"0","attack_type":"Facility\/Infrastructure Attack","target":"Police"},{"id":"2001Q3","lat":"-3.566108","lng":"128.321111","city":"Waai","group":"Unknown","nkill":"0","attack_type":"Armed Assault","target":"Transportation"},{"id":"2001Q3","lat":"5.183798","lng":"97.141575","city":"Lhokseumawe","group":"Free Aceh Movement (GAM)","nkill":"2","attack_type":"Armed Assault","target":"Military"},{"id":"2001Q3","lat":"-6.20882099999999","lng":"106.846046","city":"Jakarta","group":"Free Aceh Movement (GAM)","nkill":"0","attack_type":"Bombing\/Explosion","target":"Private Citizens & Property"}]},"4":{"data":[{"id":"2001Q4","lat":"-5.133333","lng":"119.416666999999","city":"Makassar","group":"Unknown","nkill":"0","attack_type":"Bombing\/Explosion","target":"Business"},{"id":"2001Q4","lat":"5.123772","lng":"97.154388","city":"Cunda","group":"Free Aceh Movement (GAM)","nkill":"1","attack_type":"Assassination","target":"Government (General)"},{"id":"2001Q4","lat":"-3.560226","lng":"126.546719","city":"Waimulang","group":"Villagers","nkill":"3","attack_type":"Armed Assault","target":"Private Citizens & Property"},{"id":"2001Q4","lat":"-6.20882099999999","lng":"106.846046","city":"Jakarta","group":"Unknown","nkill":"0","attack_type":"Bombing\/Explosion","target":"Educational Institution"},{"id":"2001Q4","lat":"-6.20882099999999","lng":"106.846046","city":"Jakarta","group":"Mujahedin Kompak","nkill":"0","attack_type":"Bombing\/Explosion","target":"Religious Figures\/Institutions"},{"id":"2001Q4","lat":"-3.662747","lng":"128.167873","city":"Maluku","group":"Unknown","nkill":"2","attack_type":"Bombing\/Explosion","target":"Private Citizens & Property"},{"id":"2001Q4","lat":"-3.648426","lng":"128.16576","city":"Ambon","group":"Unknown","nkill":"3","attack_type":"Armed Assault","target":"Maritime"},{"id":"2001Q4","lat":"4.67498","lng":"96.721802","city":"Bung Simek","group":"Free Aceh Movement (GAM)","nkill":"0","attack_type":"Bombing\/Explosion","target":"Police"},{"id":"2001Q4","lat":"5.541471","lng":"95.342957","city":"Banda Aceh","group":"Free Aceh Movement (GAM)","nkill":"0","attack_type":"Bombing\/Explosion","target":"Police"},{"id":"2001Q4","lat":"5.183798","lng":"97.141575","city":"Lhokseumawe","group":"Free Aceh Movement (GAM)","nkill":"1","attack_type":"Armed Assault","target":"Military"},{"id":"2001Q4","lat":"-1.424192","lng":"120.66989","city":"Patiwunga","group":"Laskar Jihad","nkill":"2","attack_type":"Armed Assault","target":"Private Citizens & Property"},{"id":"2001Q4","lat":"-1.49","lng":"120.633333","city":"Tangkura","group":"Laskar Jihad","nkill":"2","attack_type":"Armed Assault","target":"Private Citizens & Property"},{"id":"2001Q4","lat":"-1.467778","lng":"120.615833","city":"Padalembara","group":"Laskar Jihad","nkill":"2","attack_type":"Armed Assault","target":"Private Citizens & Property"},{"id":"2001Q4","lat":"-1.584919","lng":"120.654573","city":"Dewua","group":"Laskar Jihad","nkill":"2","attack_type":"Armed Assault","target":"Private Citizens & Property"},{"id":"2001Q4","lat":"-1.571389","lng":"120.628611","city":"Sanginora","group":"Laskar Jihad","nkill":"1","attack_type":"Armed Assault","target":"Private Citizens & Property"},{"id":"2001Q4","lat":"-1.456948","lng":"120.634468","city":"Betalemba","group":"Laskar Jihad","nkill":"1","attack_type":"Armed Assault","target":"Private Citizens & Property"},{"id":"2001Q4","lat":"5.183798","lng":"97.141575","city":"Lhoksemaue","group":"Free Aceh Movement (GAM)","nkill":"0","attack_type":"Bombing\/Explosion","target":"Private Citizens & Property"},{"id":"2001Q4","lat":"5.183798","lng":"97.141575","city":"Lhokseumawe","group":"Unknown","nkill":"1","attack_type":"Armed Assault","target":"Business"},{"id":"2001Q4","lat":"5.541471","lng":"95.342957","city":"Banda Aceh","group":"Free Aceh Movement (GAM)","nkill":"0","attack_type":"Bombing\/Explosion","target":"Police"},{"id":"2001Q4","lat":"4.84347","lng":"97.790576","city":"Mata Ie","group":"Free Aceh Movement (GAM)","nkill":"6","attack_type":"Armed Assault","target":"Police"}]}},"2002":{"1":{"data":[{"id":"2002Q1","lat":"-0.898583","lng":"119.850601","city":"Palu","group":"Unknown","nkill":"0","attack_type":"Bombing\/Explosion","target":"Religious Figures\/Institutions"},{"id":"2002Q1","lat":"-6.20882099999999","lng":"106.846046","city":"Jakarta","group":"Unknown","nkill":"0","attack_type":"Bombing\/Explosion","target":"Business"},{"id":"2002Q1","lat":"5.474676","lng":"95.246036","city":"Lamkruet","group":"Unknown","nkill":"1","attack_type":"Assassination","target":"Military"},{"id":"2002Q1","lat":"5.541471","lng":"95.342957","city":"Banda Aceh","group":"Free Aceh Movement (GAM)","nkill":"0","attack_type":"Bombing\/Explosion","target":"Business"},{"id":"2002Q1","lat":"4.576746","lng":"97.911612","city":"Bayeun","group":"Free Aceh Movement (GAM)","nkill":"0","attack_type":"Facility\/Infrastructure Attack","target":"Utilities"},{"id":"2002Q1","lat":"-3.648426","lng":"128.16576","city":"Ambon","group":"Unknown","nkill":"0","attack_type":"Bombing\/Explosion","target":"Private Citizens & Property"}]},"2":{"data":[{"id":"2002Q2","lat":"-3.648426","lng":"128.16576","city":"Ambon","group":"Unknown","nkill":"4","attack_type":"Bombing\/Explosion","target":"Private Citizens & Property"},{"id":"2002Q2","lat":"5.183798","lng":"97.141575","city":"Lhokseumawe","group":"Free Aceh Movement (GAM)","nkill":"2","attack_type":"Bombing\/Explosion","target":"Private Citizens & Property"},{"id":"2002Q2","lat":"-3.688889","lng":"128.186389","city":"Soya","group":"Unknown","nkill":"12","attack_type":"Armed Assault","target":"Religious Figures\/Institutions"},{"id":"2002Q2","lat":"-3.648426","lng":"128.16576","city":"Ambon","group":"Laskar Jihad","nkill":"2","attack_type":"Bombing\/Explosion","target":"Private Citizens & Property"},{"id":"2002Q2","lat":"-1.393147","lng":"120.754749","city":"Poso","group":"Unknown","nkill":"4","attack_type":"Bombing\/Explosion","target":"Transportation"},{"id":"2002Q2","lat":"-6.20882099999999","lng":"106.846046","city":"Jakarta","group":"Muslim extremists","nkill":"0","attack_type":"Bombing\/Explosion","target":"Business"},{"id":"2002Q2","lat":"-6.20882099999999","lng":"106.846046","city":"Jakarta","group":"Muslim extremists","nkill":"0","attack_type":"Bombing\/Explosion","target":"Business"},{"id":"2002Q2","lat":"-6.20882099999999","lng":"106.846046","city":"Jakarta","group":"Muslim extremists","nkill":"0","attack_type":"Bombing\/Explosion","target":"Business"},{"id":"2002Q2","lat":"5.5212","lng":"95.5531","city":"Alue Glong","group":"Free Aceh Movement (GAM)","nkill":"1","attack_type":"Assassination","target":"Government (General)"},{"id":"2002Q2","lat":"5.249444","lng":"95.940278","city":"Peureulak","group":"Free Aceh Movement (GAM)","nkill":"0","attack_type":"Hostage Taking (Kidnapping)","target":"Private Citizens & Property"}]},"3":{"data":[{"id":"2002Q3","lat":"-6.20882099999999","lng":"106.846046","city":"Jakarta","group":"Unknown","nkill":"0","attack_type":"Bombing\/Explosion","target":"Private Citizens & Property"},{"id":"2002Q3","lat":"-1.393147","lng":"120.754749","city":"Poso","group":"Unknown","nkill":"1","attack_type":"Bombing\/Explosion","target":"Unknown"},{"id":"2002Q3","lat":"-3.648426","lng":"128.16576","city":"Ambon","group":"Unknown","nkill":"0","attack_type":"Bombing\/Explosion","target":"Private Citizens & Property"},{"id":"2002Q3","lat":"-1.393147","lng":"120.754749","city":"Poso","group":"Unknown","nkill":"0","attack_type":"Bombing\/Explosion","target":"Private Citizens & Property"},{"id":"2002Q3","lat":"-1.393147","lng":"120.754749","city":"Poso","group":"Unknown","nkill":"0","attack_type":"Bombing\/Explosion","target":"Religious Figures\/Institutions"},{"id":"2002Q3","lat":"-1.393147","lng":"120.754749","city":"Poso","group":"Unknown","nkill":"0","attack_type":"Bombing\/Explosion","target":"Government (General)"},{"id":"2002Q3","lat":"-2.143056","lng":"120.728611","city":"Mayoa","group":"Gunmen","nkill":"1","attack_type":"Armed Assault","target":"Tourists"},{"id":"2002Q3","lat":"5.541471","lng":"95.342957","city":"Banda Aceh","group":"Free Aceh Movement (GAM)","nkill":"0","attack_type":"Bombing\/Explosion","target":"Private Citizens & Property"},{"id":"2002Q3","lat":"-1.384606","lng":"120.757264999999","city":"Kasintuwu","group":"Unknown","nkill":"0","attack_type":"Bombing\/Explosion","target":"Government (General)"},{"id":"2002Q3","lat":"-1.393147","lng":"120.754749","city":"Poso","group":"Unknown","nkill":"0","attack_type":"Bombing\/Explosion","target":"Police"},{"id":"2002Q3","lat":"-4.55013","lng":"136.889096","city":"Timika","group":"Unknown","nkill":"3","attack_type":"Armed Assault","target":"Business"},{"id":"2002Q3","lat":"-3.389506","lng":"127.980532","city":"Kulur","group":"Gunmen","nkill":"3","attack_type":"Armed Assault","target":"Private Citizens & Property"},{"id":"2002Q3","lat":"2.553629","lng":"128.610928","city":"Pangeo","group":"Gunmen","nkill":"1","attack_type":"Armed Assault","target":"Private Citizens & Property"},{"id":"2002Q3","lat":"2.495129","lng":"128.637253","city":"Korago","group":"Gunmen","nkill":"1","attack_type":"Armed Assault","target":"Private Citizens & Property"},{"id":"2002Q3","lat":"0.783333","lng":"127.366666999999","city":"Losuo","group":"Gunmen","nkill":"0","attack_type":"Armed Assault","target":"Private Citizens & Property"},{"id":"2002Q3","lat":"-6.20882099999999","lng":"106.846046","city":"Jakarta","group":"Muslim extremists","nkill":"1","attack_type":"Bombing\/Explosion","target":"Government (Diplomatic)"},{"id":"2002Q3","lat":"5.541471","lng":"95.342957","city":"Banda Aceh","group":"Free Aceh Movement (GAM)","nkill":"0","attack_type":"Bombing\/Explosion","target":"Unknown"}]},"4":{"data":[{"id":"2002Q4","lat":"5.353521","lng":"95.906296","city":"Gapui","group":"Free Aceh Movement (GAM)","nkill":"1","attack_type":"Armed Assault","target":"Educational Institution"},{"id":"2002Q4","lat":"-3.648426","lng":"128.16576","city":"Ambon","group":"Extremists","nkill":"0","attack_type":"Bombing\/Explosion","target":"Private Citizens & Property"},{"id":"2002Q4","lat":"1.491701","lng":"124.842842999999","city":"Manado","group":"Unknown","nkill":"0","attack_type":"Bombing\/Explosion","target":"Government (Diplomatic)"},{"id":"2002Q4","lat":"-8.722791","lng":"115.172289999999","city":"Kuta","group":"Jemaah Islamiya (JI)","nkill":"101","attack_type":"Bombing\/Explosion","target":"Business"},{"id":"2002Q4","lat":"-8.722791","lng":"115.172289999999","city":"Kuta","group":"Jemaah Islamiya (JI)","nkill":"101","attack_type":"Bombing\/Explosion","target":"Business"},{"id":"2002Q4","lat":"-8.656378","lng":"115.221806","city":"Denpasar","group":"Jemaah Islamiya (JI)","nkill":"0","attack_type":"Bombing\/Explosion","target":"Government (Diplomatic)"},{"id":"2002Q4","lat":"-6.90870399999999","lng":"107.610683","city":"Bandung","group":"Unknown","nkill":"0","attack_type":"Bombing\/Explosion","target":"Private Citizens & Property"},{"id":"2002Q4","lat":"5.072926","lng":"97.177953","city":"Teupin Peunti","group":"Free Aceh Movement (GAM)","nkill":"0","attack_type":"Hostage Taking (Kidnapping)","target":"Business"},{"id":"2002Q4","lat":"-5.133333","lng":"119.416666999999","city":"Makassar","group":"Unknown","nkill":"3","attack_type":"Bombing\/Explosion","target":"Business"}]}},"2003":{"1":{"data":[{"id":"2003Q1","lat":"-2.528781","lng":"140.713463","city":"Jayapura","group":"Unknown","nkill":"0","attack_type":"Armed Assault","target":"Police"},{"id":"2003Q1","lat":"3.585242","lng":"98.675598","city":"Medan","group":"Unknown","nkill":"0","attack_type":"Bombing\/Explosion","target":"Private Citizens & Property"},{"id":"2003Q1","lat":"-3","lng":"120.2","city":"Palopo","group":"Unknown","nkill":"4","attack_type":"Bombing\/Explosion","target":"Business"},{"id":"2003Q1","lat":"-3.648426","lng":"128.16576","city":"Ambon","group":"Unknown","nkill":"0","attack_type":"Bombing\/Explosion","target":"Government (General)"},{"id":"2003Q1","lat":"-6.20882099999999","lng":"106.846046","city":"Jakarta","group":"Unknown","nkill":"0","attack_type":"Bombing\/Explosion","target":"Police"},{"id":"2003Q1","lat":"4.622325","lng":"96.84644","city":"Takengon","group":"Free Aceh Movement (GAM)","nkill":"2","attack_type":"Armed Assault","target":"Private Citizens & Property"}]},"2":{"data":[{"id":"2003Q2","lat":"3.585242","lng":"98.675598","city":"Medan","group":"Free Aceh Movement (GAM)","nkill":"0","attack_type":"Bombing\/Explosion","target":"Utilities"},{"id":"2003Q2","lat":"-6.20882099999999","lng":"106.846046","city":"Jakarta","group":"Unknown","nkill":"0","attack_type":"Bombing\/Explosion","target":"Government (Diplomatic)"},{"id":"2003Q2","lat":"-6.20882099999999","lng":"106.846046","city":"Jakarta","group":"Jemaah Islamiya (JI)","nkill":"0","attack_type":"Bombing\/Explosion","target":"Business"},{"id":"2003Q2","lat":"5.183798","lng":"97.141575","city":"Lhokseumawe","group":"Free Aceh Movement (GAM)","nkill":"2","attack_type":"Armed Assault","target":"Private Citizens & Property"},{"id":"2003Q2","lat":"4.707828","lng":"96.732788","city":"Aceh","group":"Free Aceh Movement (GAM)","nkill":"1","attack_type":"Armed Assault","target":"Military"},{"id":"2003Q2","lat":"5.38055599999999","lng":"95.954722","city":"Pidie","group":"Free Aceh Movement (GAM)","nkill":"0","attack_type":"Armed Assault","target":"Military"}]},"3":{"data":[{"id":"2003Q3","lat":"-6.20882099999999","lng":"106.846046","city":"Jakarta","group":"Jemaah Islamiya (JI)","nkill":"0","attack_type":"Bombing\/Explosion","target":"Government (General)"},{"id":"2003Q3","lat":"5.183798","lng":"97.141575","city":"Lhokseumawe","group":"Free Aceh Movement (GAM)","nkill":"1","attack_type":"Armed Assault","target":"Private Citizens & Property"},{"id":"2003Q3","lat":"-6.20882099999999","lng":"106.846046","city":"Jakarta","group":"Jemaah Islamiya (JI)","nkill":"15","attack_type":"Bombing\/Explosion","target":"Business"}]},"4":{"data":[{"id":"2003Q4","lat":"-3.763848","lng":"137.086333","city":"Ugimba","group":"Free Papua Movement (OPM-Organisasi Papua Merdeka)","nkill":"1","attack_type":"Armed Assault","target":"Private Citizens & Property"},{"id":"2003Q4","lat":"-1.393147","lng":"120.754749","city":"Poso","group":"Unknown","nkill":"0","attack_type":"Bombing\/Explosion","target":"Government (General)"},{"id":"2003Q4","lat":"-1.393147","lng":"120.754749","city":"Poso","group":"Unknown","nkill":"0","attack_type":"Bombing\/Explosion","target":"Transportation"}]}},"2004":{"1":{"data":[{"id":"2004Q1","lat":"3.585242","lng":"98.675598","city":"Medan","group":"Free Aceh Movement (GAM)","nkill":"0","attack_type":"Bombing\/Explosion","target":"Transportation"},{"id":"2004Q1","lat":"-3","lng":"120.2","city":"Palopo","group":"Unknown","nkill":"4","attack_type":"Bombing\/Explosion","target":"Business"}]},"2":{"data":[{"id":"2004Q2","lat":"5.541471","lng":"95.342957","city":"Banda Aceh","group":"Free Aceh Movement (GAM)","nkill":"0","attack_type":"Armed Assault","target":"Government (General)"},{"id":"2004Q2","lat":"-1.393147","lng":"120.754749","city":"Poso","group":"Unknown","nkill":"0","attack_type":"Armed Assault","target":"Religious Figures\/Institutions"},{"id":"2004Q2","lat":"0.533333","lng":"101.45","city":"Pekanbaru City","group":"Unknown","nkill":"2","attack_type":"Bombing\/Explosion","target":"Business"},{"id":"2004Q2","lat":"-3.662747","lng":"128.167873","city":"Maluku","group":"Unknown","nkill":"1","attack_type":"Bombing\/Explosion","target":"Private Citizens & Property"},{"id":"2004Q2","lat":"5.541471","lng":"95.342957","city":"Banda Aceh","group":"Free Aceh Movement (GAM)","nkill":"2","attack_type":"Armed Assault","target":"Private Citizens & Property"}]},"3":{"data":[{"id":"2004Q3","lat":"-0.898583","lng":"119.850601","city":"Palu","group":"Unknown","nkill":"1","attack_type":"Armed Assault","target":"Religious Figures\/Institutions"},{"id":"2004Q3","lat":"-6.20882099999999","lng":"106.846046","city":"Jakarta","group":"Unknown","nkill":"0","attack_type":"Bombing\/Explosion","target":"Government (General)"},{"id":"2004Q3","lat":"5.541471","lng":"95.342957","city":"Banda Aceh","group":"Free Aceh Movement (GAM)","nkill":"0","attack_type":"Bombing\/Explosion","target":"Private Citizens & Property"},{"id":"2004Q3","lat":"-6.20882099999999","lng":"106.846046","city":"Jakarta","group":"Jemaah Islamiya (JI)","nkill":"10","attack_type":"Bombing\/Explosion","target":"Government (Diplomatic)"}]},"4":{"data":[{"id":"2004Q4","lat":"-4.467386","lng":"138.350384","city":"Kampung Munia","group":"Free Papua Movement (OPM-Organisasi Papua Merdeka)","nkill":"6","attack_type":"Armed Assault","target":"Business"},{"id":"2004Q4","lat":"-4.083611","lng":"137.184722","city":"Puncak Jaya District","group":"Free Papua Movement (OPM-Organisasi Papua Merdeka)","nkill":"6","attack_type":"Armed Assault","target":"Business"},{"id":"2004Q4","lat":"-6.767239","lng":"106.788768999999","city":"Cicurug","group":"Unknown","nkill":"0","attack_type":"Bombing\/Explosion","target":"Transportation"},{"id":"2004Q4","lat":"-1.393147","lng":"120.754749","city":"Poso","group":"Unknown","nkill":"6","attack_type":"Bombing\/Explosion","target":"Transportation"},{"id":"2004Q4","lat":"5.541471","lng":"95.342957","city":"Chik Embon","group":"Free Aceh Movement (GAM)","nkill":"3","attack_type":"Armed Assault","target":"Private Citizens & Property"}]}},"2005":{"1":{"data":[{"id":"2005Q1","lat":"5.541471","lng":"95.342957","city":"Banda Aceh City","group":"Unknown","nkill":"3","attack_type":"Armed Assault","target":"Police"},{"id":"2005Q1","lat":"-1.393147","lng":"120.754749","city":"Poso","group":"Unknown","nkill":"0","attack_type":"Bombing\/Explosion","target":"Business"},{"id":"2005Q1","lat":"5.541471","lng":"95.342957","city":"Banda Aceh City","group":"Free Aceh Movement (GAM)","nkill":"0","attack_type":"Armed Assault","target":"Police"}]},"2":{"data":[{"id":"2005Q2","lat":"-3.648426","lng":"128.16576","city":"Ambon","group":"Unknown","nkill":"0","attack_type":"Bombing\/Explosion","target":"Private Citizens & Property"},{"id":"2005Q2","lat":"-1.165474","lng":"119.886186","city":"Loki","group":"Unknown","nkill":"7","attack_type":"Armed Assault","target":"Police"},{"id":"2005Q2","lat":"-3.016831","lng":"130.332521999999","city":"Unknown","group":"Unknown","nkill":"6","attack_type":"Armed Assault","target":"Police"},{"id":"2005Q2","lat":"-1.763255","lng":"120.640908","city":"Tentena","group":"Jemaah Islamiya (JI)","nkill":"11","attack_type":"Bombing\/Explosion","target":"Private Citizens & Property"},{"id":"2005Q2","lat":"-1.763255","lng":"120.640908","city":"Tentena","group":"Jemaah Islamiya (JI)","nkill":"11","attack_type":"Bombing\/Explosion","target":"Private Citizens & Property"},{"id":"2005Q2","lat":"-6.20882099999999","lng":"106.846046","city":"Jakarta","group":"Unknown","nkill":"0","attack_type":"Bombing\/Explosion","target":"Terrorists\/Non-State Militia"},{"id":"2005Q2","lat":"-1.393147","lng":"120.754749","city":"Poso","group":"Unknown","nkill":"0","attack_type":"Bombing\/Explosion","target":"Private Citizens & Property"}]},"3":{"data":[{"id":"2005Q3","lat":"-3.648426","lng":"128.16576","city":"Ambon","group":"Mujahidin Ambon","nkill":"0","attack_type":"Bombing\/Explosion","target":"Private Citizens & Property"}]},"4":{"data":[{"id":"2005Q4","lat":"-8.790422","lng":"115.159278","city":"Jimbaran","group":"Jemaah Islamiya (JI)","nkill":"13","attack_type":"Bombing\/Explosion","target":"Tourists"},{"id":"2005Q4","lat":"-8.722791","lng":"115.172289999999","city":"Kuta","group":"Jemaah Islamiya (JI)","nkill":"12","attack_type":"Bombing\/Explosion","target":"Tourists"},{"id":"2005Q4","lat":"-0.815556","lng":"120.176667","city":"Parigi","group":"Unknown","nkill":"0","attack_type":"Bombing\/Explosion","target":"Transportation"},{"id":"2005Q4","lat":"-1.393147","lng":"120.754749","city":"Poso","group":"Unknown","nkill":"3","attack_type":"Armed Assault","target":"Private Citizens & Property"}]}},"2006":{"1":{"data":[{"id":"2006Q1","lat":"-1.393147","lng":"120.754749","city":"Poso","group":"Unknown","nkill":"0","attack_type":"Bombing\/Explosion","target":"Government (General)"},{"id":"2006Q1","lat":"-1.393147","lng":"120.754749","city":"Poso","group":"Unknown","nkill":"0","attack_type":"Assassination","target":"Police"},{"id":"2006Q1","lat":"-3.679433","lng":"128.2269","city":"Batu Merah village","group":"Unknown","nkill":"0","attack_type":"Bombing\/Explosion","target":"Private Citizens & Property"}]},"2":{"data":[{"id":"2006Q2","lat":"-2.528781","lng":"140.713463","city":"Jayapura","group":"Free Papua Movement (OPM-Organisasi Papua Merdeka)","nkill":"4","attack_type":"Armed Assault","target":"Military"},{"id":"2006Q2","lat":"-6.20882099999999","lng":"106.846046","city":"Jakarta","group":"Islamic Defenders' Front (FPI)","nkill":"0","attack_type":"Facility\/Infrastructure Attack","target":"Journalists & Media"}]},"3":{"data":[{"id":"2006Q3","lat":"-1.49","lng":"120.633333","city":"Tangkura","group":"Unknown","nkill":"1","attack_type":"Bombing\/Explosion","target":"Private Citizens & Property"}]},"4":{"data":[{"id":"2006Q4","lat":"-0.898583","lng":"119.850601","city":"Palu","group":"Unknown","nkill":"1","attack_type":"Assassination","target":"Religious Figures\/Institutions"},{"id":"2006Q4","lat":"-6.20882099999999","lng":"106.846046","city":"Jakarta","group":"Unknown","nkill":"0","attack_type":"Bombing\/Explosion","target":"Business"},{"id":"2006Q4","lat":"5.38055599999999","lng":"95.954722","city":"Pidie","group":"Unknown","nkill":"0","attack_type":"Unarmed Assault","target":"Private Citizens & Property"},{"id":"2006Q4","lat":"5.38055599999999","lng":"95.954722","city":"Pidie","group":"Unknown","nkill":"0","attack_type":"Hostage Taking (Kidnapping)","target":"Private Citizens & Property"}]}},"2007":{"2":{"data":[{"id":"2007Q2","lat":"-1.393147","lng":"120.754749","city":"Poso","group":"Unknown","nkill":"0","attack_type":"Bombing\/Explosion","target":"Private Citizens & Property"},{"id":"2007Q2","lat":"-7.025867","lng":"107.516899","city":"Soreang","group":"Anti-Apostate Movement Alliance (AGAP)","nkill":"0","attack_type":"Unarmed Assault","target":"Religious Figures\/Institutions"}]}},"2008":{"2":{"data":[{"id":"2008Q2","lat":"-6.20882099999999","lng":"106.846046","city":"Jakarta","group":"Unknown","nkill":"0","attack_type":"Bombing\/Explosion","target":"Maritime"}]},"3":{"data":[{"id":"2008Q3","lat":"-1.393147","lng":"120.754749","city":"Poso","group":"Unknown","nkill":"0","attack_type":"Bombing\/Explosion","target":"Private Citizens & Property"},{"id":"2008Q3","lat":"-1.393147","lng":"120.754749","city":"Poso","group":"Unknown","nkill":"0","attack_type":"Bombing\/Explosion","target":"Private Citizens & Property"},{"id":"2008Q3","lat":"5.541471","lng":"95.342957","city":"Banda Aceh","group":"Unknown","nkill":"0","attack_type":"Bombing\/Explosion","target":"Private Citizens & Property"},{"id":"2008Q3","lat":"5.202074","lng":"96.702147","city":"Bireun","group":"Unknown","nkill":"0","attack_type":"Bombing\/Explosion","target":"Terrorists\/Non-State Militia"}]},"4":{"data":[{"id":"2008Q4","lat":"5.541471","lng":"95.342957","city":"Banda Aceh","group":"Unknown","nkill":"0","attack_type":"Bombing\/Explosion","target":"Terrorists\/Non-State Militia"},{"id":"2008Q4","lat":"-1.393147","lng":"120.754749","city":"Poso","group":"Unknown","nkill":"0","attack_type":"Bombing\/Explosion","target":"Unknown"},{"id":"2008Q4","lat":"-1.393147","lng":"120.754749","city":"Poso","group":"Unknown","nkill":"0","attack_type":"Bombing\/Explosion","target":"Unknown"},{"id":"2008Q4","lat":"0.781083","lng":"127.38132","city":"Ternate","group":"Unknown","nkill":"0","attack_type":"Bombing\/Explosion","target":"Government (General)"},{"id":"2008Q4","lat":"0.781083","lng":"127.38132","city":"Ternate","group":"Unknown","nkill":"0","attack_type":"Assassination","target":"Government (General)"},{"id":"2008Q4","lat":"0.781083","lng":"127.38132","city":"Ternate","group":"Unknown","nkill":"0","attack_type":"Bombing\/Explosion","target":"Government (General)"}]}},"2009":{"1":{"data":[{"id":"2009Q1","lat":"5.541471","lng":"95.342957","city":"Banda Aceh","group":"Unknown","nkill":"0","attack_type":"Bombing\/Explosion","target":"Business"},{"id":"2009Q1","lat":"-6.20882099999999","lng":"106.846046","city":"Jakarta","group":"Unknown","nkill":"0","attack_type":"Facility\/Infrastructure Attack","target":"Government (Diplomatic)"},{"id":"2009Q1","lat":"4.707828","lng":"96.732788","city":"Aceh Besar","group":"Unknown","nkill":"1","attack_type":"Armed Assault","target":"Government (General)"}]},"2":{"data":[{"id":"2009Q2","lat":"-2.528781","lng":"140.713463","city":"Jayapura","group":"Unknown","nkill":"0","attack_type":"Bombing\/Explosion","target":"Transportation"}]},"3":{"data":[{"id":"2009Q3","lat":"-4.55013","lng":"136.889096","city":"Timika","group":"Unknown","nkill":"1","attack_type":"Armed Assault","target":"Business"},{"id":"2009Q3","lat":"-6.20882099999999","lng":"106.846046","city":"Jakarta","group":"Jemaah Islamiya (JI)","nkill":"5","attack_type":"Bombing\/Explosion","target":"Business"},{"id":"2009Q3","lat":"-6.20882099999999","lng":"106.846046","city":"Jakarta","group":"Jemaah Islamiya (JI)","nkill":"4","attack_type":"Bombing\/Explosion","target":"Business"},{"id":"2009Q3","lat":"-6.20882099999999","lng":"106.846046","city":"Jakarta","group":"Unknown","nkill":"2","attack_type":"Bombing\/Explosion","target":"Private Citizens & Property"},{"id":"2009Q3","lat":"-4.55013","lng":"136.889096","city":"Timika","group":"Unknown","nkill":"0","attack_type":"Armed Assault","target":"Business"},{"id":"2009Q3","lat":"-4.55013","lng":"136.889096","city":"Timika","group":"Unknown","nkill":"0","attack_type":"Armed Assault","target":"Business"},{"id":"2009Q3","lat":"-4.55013","lng":"136.889096","city":"Timika","group":"Unknown","nkill":"0","attack_type":"Armed Assault","target":"Business"}]},"4":{"data":[{"id":"2009Q4","lat":"1.491701","lng":"124.842842999999","city":"Manado","group":"Unknown","nkill":"0","attack_type":"Bombing\/Explosion","target":"Private Citizens & Property"},{"id":"2009Q4","lat":"-4.55013","lng":"136.889096","city":"Timika","group":"Unknown","nkill":"0","attack_type":"Armed Assault","target":"Private Citizens & Property"},{"id":"2009Q4","lat":"-2.528781","lng":"140.713463","city":"Jayapura","group":"Unknown","nkill":"1","attack_type":"Armed Assault","target":"Business"},{"id":"2009Q4","lat":"5.541471","lng":"95.342957","city":"Banda Aceh","group":"Unknown","nkill":"0","attack_type":"Armed Assault","target":"NGO"},{"id":"2009Q4","lat":"5.541471","lng":"95.342957","city":"Banda Aceh","group":"Unknown","nkill":"0","attack_type":"Armed Assault","target":"Government (Diplomatic)"}]}},"2010":{"1":{"data":[{"id":"2010Q1","lat":"1.05388899999999","lng":"99.730278","city":"Sibuhuan","group":"Unknown","nkill":"0","attack_type":"Facility\/Infrastructure Attack","target":"Religious Figures\/Institutions"},{"id":"2010Q1","lat":"1.05388899999999","lng":"99.730278","city":"Sibuhuan","group":"Unknown","nkill":"0","attack_type":"Facility\/Infrastructure Attack","target":"Religious Figures\/Institutions"},{"id":"2010Q1","lat":"1.05388899999999","lng":"99.730278","city":"Sibuhuan","group":"Unknown","nkill":"0","attack_type":"Facility\/Infrastructure Attack","target":"Private Citizens & Property"}]}},"2011":{"1":{"data":[{"id":"2011Q1","lat":"-6.20882099999999","lng":"106.846046","city":"Jakarta","group":"Jemaah Islamiya (JI)","nkill":"0","attack_type":"Bombing\/Explosion","target":"Religious Figures\/Institutions"},{"id":"2011Q1","lat":"-6.20882099999999","lng":"106.846046","city":"Jakarta","group":"Jemaah Islamiya (JI)","nkill":"0","attack_type":"Bombing\/Explosion","target":"Private Citizens & Property"},{"id":"2011Q1","lat":"-6.20882099999999","lng":"106.846046","city":"Jakarta","group":"Jemaah Islamiya (JI)","nkill":"0","attack_type":"Bombing\/Explosion","target":"Police"},{"id":"2011Q1","lat":"-6.20882099999999","lng":"106.846046","city":"Jakarta","group":"Jemaah Islamiya (JI)","nkill":"0","attack_type":"Bombing\/Explosion","target":"Private Citizens & Property"},{"id":"2011Q1","lat":"-6.59878999999999","lng":"106.799755","city":"Bogor","group":"Unknown","nkill":"0","attack_type":"Bombing\/Explosion","target":"Police"},{"id":"2011Q1","lat":"-6.20882099999999","lng":"106.846046","city":"Jakarta","group":"Unknown","nkill":"0","attack_type":"Bombing\/Explosion","target":"Private Citizens & Property"}]},"2":{"data":[{"id":"2011Q2","lat":"-6.71507299999999","lng":"108.563746999999","city":"Cirebon","group":"Jamaah Ansharut Tauhid (JAT)","nkill":"1","attack_type":"Bombing\/Explosion","target":"Police"},{"id":"2011Q2","lat":"-6.20882099999999","lng":"106.846046","city":"Jakarta","group":"Unknown","nkill":"0","attack_type":"Bombing\/Explosion","target":"Religious Figures\/Institutions"},{"id":"2011Q2","lat":"-7.797224","lng":"110.368797","city":"Yogyakarta","group":"Unknown","nkill":"0","attack_type":"Facility\/Infrastructure Attack","target":"Religious Figures\/Institutions"},{"id":"2011Q2","lat":"-3.296667","lng":"102.861667","city":"Lubuk Linggau","group":"Unknown","nkill":"0","attack_type":"Bombing\/Explosion","target":"Business"}]},"3":{"data":[{"id":"2011Q3","lat":"-2.66253899999999","lng":"140.699787","city":"Abepura","group":"Unknown","nkill":"4","attack_type":"Armed Assault","target":"Military"},{"id":"2011Q3","lat":"-2.66253899999999","lng":"140.699787","city":"Abepura","group":"Unknown","nkill":"4","attack_type":"Armed Assault","target":"Private Citizens & Property"},{"id":"2011Q3","lat":"2.051914","lng":"128.294516999999","city":"Morotai","group":"Unknown","nkill":"0","attack_type":"Bombing\/Explosion","target":"Government (General)"},{"id":"2011Q3","lat":"-7.556169","lng":"110.823059","city":"Surakarta (Solo)","group":"Jamaah Ansharut Tauhid (JAT)","nkill":"1","attack_type":"Bombing\/Explosion","target":"Religious Figures\/Institutions"}]},"4":{"data":[{"id":"2011Q4","lat":"-2.528781","lng":"140.713463","city":"Jayapura","group":"Unknown","nkill":"1","attack_type":"Assassination","target":"Police"},{"id":"2011Q4","lat":"-2.534382","lng":"140.709304","city":"Unknown","group":"Free Papua Movement (OPM-Organisasi Papua Merdeka)","nkill":"0","attack_type":"Armed Assault","target":"Police"},{"id":"2011Q4","lat":"-2.534382","lng":"140.709304","city":"Unknown","group":"Gunmen","nkill":"1","attack_type":"Armed Assault","target":"Police"},{"id":"2011Q4","lat":"-2.533","lng":"140.717","city":"None","group":"Free Papua Movement (OPM-Organisasi Papua Merdeka)","nkill":"2","attack_type":"Unarmed Assault","target":"Police"},{"id":"2011Q4","lat":"-4.266966","lng":"137.0472","city":"Tembagapura","group":"Unknown","nkill":"0","attack_type":"Armed Assault","target":"Business"}]}},"2012":{"1":{"data":[{"id":"2012Q1","lat":"5.541471","lng":"95.342957","city":"Jalan Aneuk Galong","group":"Unknown","nkill":"3","attack_type":"Armed Assault","target":"Business"},{"id":"2012Q1","lat":"-4.548563","lng":"136.890763","city":"Timika","group":"Unknown","nkill":"2","attack_type":"Armed Assault","target":"Business"},{"id":"2012Q1","lat":"-4.055117","lng":"137.100807","city":"Grasberg","group":"Free Papua Movement (OPM-Organisasi Papua Merdeka)","nkill":"1","attack_type":"Armed Assault","target":"Police"},{"id":"2012Q1","lat":"-6.966667","lng":"110.416666999999","city":"Semarang","group":"Unknown","nkill":"0","attack_type":"Bombing\/Explosion","target":"Business"},{"id":"2012Q1","lat":"5.333189","lng":"95.927669","city":"Desa Blang Rikui","group":"Unknown","nkill":"0","attack_type":"Assassination","target":"Government (General)"}]},"2":{"data":[{"id":"2012Q2","lat":"-3.709348","lng":"137.975013","city":"Mulia","group":"Unknown","nkill":"1","attack_type":"Armed Assault","target":"Airports & Aircraft"},{"id":"2012Q2","lat":"-4.330066","lng":"136.91186","city":"Mimika district","group":"Unknown","nkill":"0","attack_type":"Armed Assault","target":"Food or Water Supply"},{"id":"2012Q2","lat":"-4.330066","lng":"136.91186","city":"Mimika district","group":"Unknown","nkill":"0","attack_type":"Armed Assault","target":"Food or Water Supply"},{"id":"2012Q2","lat":"4.14373499999999","lng":"96.1280209999999","city":"Meulaboh","group":"Unknown","nkill":"0","attack_type":"Bombing\/Explosion","target":"Government (General)"},{"id":"2012Q2","lat":"-3.34111","lng":"128.923529","city":"Amahai","group":"Unknown","nkill":"0","attack_type":"Bombing\/Explosion","target":"Violent Political Party"},{"id":"2012Q2","lat":"-3.34111","lng":"128.923529","city":"Amahai","group":"Unknown","nkill":"0","attack_type":"Bombing\/Explosion","target":"Government (General)"},{"id":"2012Q2","lat":"-3.34111","lng":"128.923529","city":"Amahai","group":"Unknown","nkill":"0","attack_type":"Bombing\/Explosion","target":"Government (General)"},{"id":"2012Q2","lat":"-2.54165299999999","lng":"140.706078","city":"Jayapura","group":"Free Papua Movement (OPM-Organisasi Papua Merdeka)","nkill":"0","attack_type":"Armed Assault","target":"Tourists"},{"id":"2012Q2","lat":"-2.532431","lng":"140.716539999999","city":"Jayapura","group":"Free Papua Movement (OPM-Organisasi Papua Merdeka)","nkill":"0","attack_type":"Armed Assault","target":"Private Citizens & Property"}]},"3":{"data":[{"id":"2012Q3","lat":"1.045626","lng":"104.030454","city":"Batam","group":"Unknown","nkill":"0","attack_type":"Bombing\/Explosion","target":"Journalists & Media"},{"id":"2012Q3","lat":"-7.556169","lng":"110.823059","city":"Surakata","group":"Jamaah Ansharut Tauhid (JAT)","nkill":"0","attack_type":"Armed Assault","target":"Police"},{"id":"2012Q3","lat":"-7.556169","lng":"110.823059","city":"Surakata","group":"Jamaah Ansharut Tauhid (JAT)","nkill":"0","attack_type":"Bombing\/Explosion","target":"Police"},{"id":"2012Q3","lat":"-4.027289","lng":"138.806534","city":"Jayawijaya district","group":"Unknown","nkill":"0","attack_type":"Facility\/Infrastructure Attack","target":"Government (General)"},{"id":"2012Q3","lat":"-4.551947","lng":"136.885009","city":"Timika","group":"Unknown","nkill":"0","attack_type":"Armed Assault","target":"Military"},{"id":"2012Q3","lat":"-4.551947","lng":"136.885009","city":"Timika","group":"Unknown","nkill":"0","attack_type":"Armed Assault","target":"Military"}]},"4":{"data":[{"id":"2012Q4","lat":"-3.70742699999999","lng":"128.169958","city":"Ambon","group":"Unknown","nkill":"0","attack_type":"Bombing\/Explosion","target":"Transportation"},{"id":"2012Q4","lat":"-1.40232","lng":"120.758233","city":"Poso","group":"Muslim extremists","nkill":"0","attack_type":"Bombing\/Explosion","target":"Private Citizens & Property"},{"id":"2012Q4","lat":"-1.893291","lng":"120.825797999999","city":"Taripa","group":"Muslim extremists","nkill":"0","attack_type":"Bombing\/Explosion","target":"Religious Figures\/Institutions"},{"id":"2012Q4","lat":"-0.928862999999999","lng":"119.871135","city":"Tamanjeka","group":"Mujahidin Indonesia Timur (MIT)","nkill":"2","attack_type":"Armed Assault","target":"Police"},{"id":"2012Q4","lat":"-1.40232","lng":"120.758233","city":"Poso","group":"Jamaah Ansharut Tauhid (JAT)","nkill":"0","attack_type":"Bombing\/Explosion","target":"Police"},{"id":"2012Q4","lat":"-1.40232","lng":"120.758233","city":"Poso","group":"Jamaah Ansharut Tauhid (JAT)","nkill":"0","attack_type":"Bombing\/Explosion","target":"Police"},{"id":"2012Q4","lat":"-1.40232","lng":"120.758233","city":"Poso","group":"Jamaah Ansharut Tauhid (JAT)","nkill":"0","attack_type":"Facility\/Infrastructure Attack","target":"Religious Figures\/Institutions"},{"id":"2012Q4","lat":"-1.40232","lng":"120.758233","city":"Poso","group":"Unknown","nkill":"0","attack_type":"Bombing\/Explosion","target":"Private Citizens & Property"},{"id":"2012Q4","lat":"-1.40232","lng":"120.758233","city":"Poso","group":"Unknown","nkill":"0","attack_type":"Bombing\/Explosion","target":"Unknown"},{"id":"2012Q4","lat":"-1.479086","lng":"121.454854","city":"Tamanjeka","group":"Unknown","nkill":"0","attack_type":"Bombing\/Explosion","target":"Private Citizens & Property"},